{"last_updated":1721740026,"ttl":60,"data":{"stations":[{"station_id":"5501","name":"République","region_id":"region_rennes_metropole_35238","lon":-1.678037,"lat":48.110026,"address":"19 Quai Lamartine","post_code":"35238","rental_methods":["KEY","ANDROIDPAY","PHONE","CREDITCARD"],"capacity":45},{"station_id":"5502","name":"Mairie - Opéra","region_id":"region_rennes_metropole_35238","lon":-1.678757,"lat":48.111624,"address":"11 galeries du Théâtre","post_code":"35238","rental_methods":["KEY","ANDROIDPAY","PHONE","CREDITCARD"],"capacity":24},{"station_id":"5504","name":"Place Hoche","region_id":"region_rennes_metropole_35238","lon":-1.677073,"lat":48.115074,"address":"12 Place Hoche","post_code":"35238","rental_methods":["KEY","ANDROIDPAY","PHONE","CREDITCARD"],"capacity":39},{"station_id":"5505","name":"Sainte-Anne","region_id":"region_rennes_metropole_35238","lon":-1.680461,"lat":48.11421,"address":"16 Place Sainte-Anne","post_code":"35238","rental_methods":["KEY","ANDROIDPAY","PHONE","CREDITCARD"],"capacity":23},{"station_id":"5506","name":"Hôtel Dieu","region_id":"region_rennes_metropole_35238","lon":-1.677849,"lat":48.117596,"address":"2 Rue de la Cochardière","post_code":"35238","rental_methods":["KEY","ANDROIDPAY","PHONE","CREDITCARD"],"capacity":26},{"station_id":"5507","name":"Jules Ferry","region_id":"region_rennes_metropole_35238","lon":-1.670735,"lat":48.118172,"address":"75 rue Jean Guéhenno","post_code":"35238","rental_methods":["KEY","ANDROIDPAY","PHONE","CREDITCARD"],"capacity":31},{"station_id":"5509","name":"Saint-Georges Piscine","region_id":"region_rennes_metropole_35238","lon":-1.674417,"lat":48.112385,"address":"21 rue Victor Hugo","post_code":"35238","rental_methods":["KEY","ANDROIDPAY","PHONE","CREDITCARD"],"capacity":18},{"station_id":"5510","name":"Musée Beaux-Arts","region_id":"region_rennes_metropole_35238","lon":-1.67408,"lat":48.109601,"address":"3 Avenue Jean Janvier","post_code":"35238","rental_methods":["KEY","ANDROIDPAY","PHONE","CREDITCARD"],"capacity":16},{"station_id":"5512","name":"TNB","region_id":"region_rennes_metropole_35238","lon":-1.673711,"lat":48.107748,"address":"1 Square de Kergus","post_code":"35238","rental_methods":["KEY","ANDROIDPAY","PHONE","CREDITCARD"],"capacity":28},{"station_id":"5514","name":"Bonnets Rouges","region_id":"region_rennes_metropole_35238","lon":-1.665814,"lat":48.106846,"address":"11 boulevard René Laënnec","post_code":"35238","rental_methods":["KEY","ANDROIDPAY","PHONE","CREDITCARD"],"capacity":24},{"station_id":"5516","name":"Champs Libres","region_id":"region_rennes_metropole_35238","lon":-1.674328,"lat":48.105537,"address":"7 Cours des Alliés","post_code":"35238","rental_methods":["KEY","ANDROIDPAY","PHONE","CREDITCARD"],"capacity":24},{"station_id":"5517","name":"Charles de Gaulle","region_id":"region_rennes_metropole_35238","lon":-1.677119,"lat":48.105111,"address":"2 Cours des Alliés","post_code":"35238","rental_methods":["KEY","ANDROIDPAY","PHONE","CREDITCARD"],"capacity":24},{"station_id":"5519","name":"Colombier","region_id":"region_rennes_metropole_35238","lon":-1.680594,"lat":48.106103,"address":"6 rue de Plélo","post_code":"35238","rental_methods":["KEY","ANDROIDPAY","PHONE","CREDITCARD"],"capacity":24},{"station_id":"5520","name":"Pont de Nantes","region_id":"region_rennes_metropole_35238","lon":-1.684015,"lat":48.102015,"address":"32 Rue du Docteur Francis Joly","post_code":"35238","rental_methods":["KEY","ANDROIDPAY","PHONE","CREDITCARD"],"capacity":20},{"station_id":"5522","name":"Oberthur","region_id":"region_rennes_metropole_35238","lon":-1.661853,"lat":48.11355,"address":"4 Rue Gutenberg","post_code":"35238","rental_methods":["KEY","ANDROIDPAY","PHONE","CREDITCARD"],"capacity":30},{"station_id":"5523","name":"La Rotonde","region_id":"region_rennes_metropole_35238","lon":-1.68677,"lat":48.106653,"address":"2 Rue de Redon","post_code":"35238","rental_methods":["KEY","ANDROIDPAY","PHONE","CREDITCARD"],"capacity":20},{"station_id":"5524","name":"Place de Bretagne","region_id":"region_rennes_metropole_35238","lon":-1.684041,"lat":48.1097,"address":"3 Place de Bretagne","post_code":"35238","rental_methods":["KEY","ANDROIDPAY","PHONE","CREDITCARD"],"capacity":39},{"station_id":"5526","name":"Les Lices","region_id":"region_rennes_metropole_35238","lon":-1.685037,"lat":48.112766,"address":"9 Rue de Juillet","post_code":"35238","rental_methods":["KEY","ANDROIDPAY","PHONE","CREDITCARD"],"capacity":25},{"station_id":"5527","name":"Horizons","region_id":"region_rennes_metropole_35238","lon":-1.689656,"lat":48.111564,"address":"6 Rue de Brest","post_code":"35238","rental_methods":["KEY","ANDROIDPAY","PHONE","CREDITCARD"],"capacity":24},{"station_id":"5528","name":"Chèques Postaux","region_id":"region_rennes_metropole_35238","lon":-1.693432,"lat":48.108765,"address":"66 Mail François Mitterrand","post_code":"35238","rental_methods":["KEY","ANDROIDPAY","PHONE","CREDITCARD"],"capacity":30},{"station_id":"5533","name":"Anatole France","region_id":"region_rennes_metropole_35238","lon":-1.688466,"lat":48.11817,"address":"3 Avenue du 41ème Régiment d'Infanterie","post_code":"35238","rental_methods":["KEY","ANDROIDPAY","PHONE","CREDITCARD"],"capacity":28},{"station_id":"5534","name":"Brest Verdun","region_id":"region_rennes_metropole_35238","lon":-1.693264,"lat":48.113009,"address":"2 boulevard de Verdun","post_code":"35238","rental_methods":["KEY","ANDROIDPAY","PHONE","CREDITCARD"],"capacity":24},{"station_id":"5535","name":"Pont de Châteaudun","region_id":"region_rennes_metropole_35238","lon":-1.664443,"lat":48.110264,"address":"65 Avenue Aristide Briand","post_code":"35238","rental_methods":["KEY","ANDROIDPAY","PHONE","CREDITCARD"],"capacity":20},{"station_id":"5536","name":"Paul Bert","region_id":"region_rennes_metropole_35238","lon":-1.670039,"lat":48.110115,"address":"9 Avenue Aristide Briand","post_code":"35238","rental_methods":["KEY","ANDROIDPAY","PHONE","CREDITCARD"],"capacity":16},{"station_id":"5537","name":"Auberge de Jeunesse","region_id":"region_rennes_metropole_35238","lon":-1.681876,"lat":48.120876,"address":"83 Rue de Saint-Malo","post_code":"35238","rental_methods":["KEY","ANDROIDPAY","PHONE","CREDITCARD"],"capacity":29},{"station_id":"5538","name":"Marbeuf","region_id":"region_rennes_metropole_35238","lon":-1.702077,"lat":48.111749,"address":"37 Rue Louis Guilloux","post_code":"35238","rental_methods":["KEY","ANDROIDPAY","PHONE","CREDITCARD"],"capacity":20},{"station_id":"5539","name":"Pontchaillou","region_id":"region_rennes_metropole_35238","lon":-1.692737,"lat":48.121481,"address":"49 rue Antoine Joly","post_code":"35238","rental_methods":["KEY","ANDROIDPAY","PHONE","CREDITCARD"],"capacity":28},{"station_id":"5540","name":"Croix Saint-Hélier","region_id":"region_rennes_metropole_35238","lon":-1.66209,"lat":48.10305,"address":"13 mail Louise Bourgeois","post_code":"35238","rental_methods":["KEY","ANDROIDPAY","PHONE","CREDITCARD"],"capacity":20},{"station_id":"5542","name":"Robidou","region_id":"region_rennes_metropole_35238","lon":-1.659499,"lat":48.109926,"address":"124 Avenue Sergent Maginot","post_code":"35238","rental_methods":["KEY","ANDROIDPAY","PHONE","CREDITCARD"],"capacity":20},{"station_id":"5543","name":"Cité Judiciaire","region_id":"region_rennes_metropole_35238","lon":-1.68411,"lat":48.104771,"address":"20 Rue du Papier Timbré","post_code":"35238","rental_methods":["KEY","ANDROIDPAY","PHONE","CREDITCARD"],"capacity":24},{"station_id":"5544","name":"Metz - Sévigné","region_id":"region_rennes_metropole_35238","lon":-1.658258,"lat":48.115993,"address":"28 Boulevard de Metz","post_code":"35238","rental_methods":["KEY","ANDROIDPAY","PHONE","CREDITCARD"],"capacity":16},{"station_id":"5546","name":"Plaine de Baud","region_id":"region_rennes_metropole_35238","lon":-1.643674,"lat":48.112461,"address":"Avenue François Château","post_code":"35238","rental_methods":["KEY","ANDROIDPAY","PHONE","CREDITCARD"],"capacity":24},{"station_id":"5547","name":"Beaulieu Chimie","region_id":"region_rennes_metropole_35238","lon":-1.633875,"lat":48.116458,"address":"Allée de Beaulieu","post_code":"35238","rental_methods":["KEY","ANDROIDPAY","PHONE","CREDITCARD"],"capacity":30},{"station_id":"5548","name":"Beaulieu - Université","region_id":"region_rennes_metropole_35238","lon":-1.639783,"lat":48.121906,"address":"39 avenue Professeur Charles Foulon","post_code":"35238","rental_methods":["KEY","ANDROIDPAY","PHONE","CREDITCARD"],"capacity":30},{"station_id":"5552","name":"Villejean-Université","region_id":"region_rennes_metropole_35238","lon":-1.70428,"lat":48.121074,"address":"Place Recteur Henri Le Moal","post_code":"35238","rental_methods":["KEY","ANDROIDPAY","PHONE","CREDITCARD"],"capacity":26},{"station_id":"5555","name":"Préfecture","region_id":"region_rennes_metropole_35238","lon":-1.694032,"lat":48.128453,"address":"1 Avenue de Cucillé","post_code":"35238","rental_methods":["KEY","ANDROIDPAY","PHONE","CREDITCARD"],"capacity":27},{"station_id":"5556","name":"Berger","region_id":"region_rennes_metropole_35238","lon":-1.705097,"lat":48.116314,"address":"1 Avenue Gaston Berger","post_code":"35238","rental_methods":["KEY","ANDROIDPAY","PHONE","CREDITCARD"],"capacity":14},{"station_id":"5560","name":"Cucillé - Frac","region_id":"region_rennes_metropole_35238","lon":-1.698129,"lat":48.128788,"address":"12 bis avenue de Cucillé","post_code":"35238","rental_methods":["KEY","ANDROIDPAY","PHONE","CREDITCARD"],"capacity":25},{"station_id":"5561","name":"Jacques Cartier","region_id":"region_rennes_metropole_35238","lon":-1.674834,"lat":48.097505,"address":"155 Boulevard Jacques Cartier","post_code":"35238","rental_methods":["KEY","ANDROIDPAY","PHONE","CREDITCARD"],"capacity":24},{"station_id":"5562","name":"Clemenceau","region_id":"region_rennes_metropole_35238","lon":-1.674116,"lat":48.093292,"address":"1 Avenue Henri Fréville","post_code":"35238","rental_methods":["KEY","ANDROIDPAY","PHONE","CREDITCARD"],"capacity":22},{"station_id":"5566","name":"Bréquigny Piscine","region_id":"region_rennes_metropole_35238","lon":-1.690244,"lat":48.089978,"address":"10 boulevard Albert 1er","post_code":"35238","rental_methods":["KEY","ANDROIDPAY","PHONE","CREDITCARD"],"capacity":24},{"station_id":"5567","name":"Binquenais","region_id":"region_rennes_metropole_35238","lon":-1.667321,"lat":48.091594,"address":"24 Rue André Rouault","post_code":"35238","rental_methods":["KEY","ANDROIDPAY","PHONE","CREDITCARD"],"capacity":16},{"station_id":"5569","name":"Champs Manceaux","region_id":"region_rennes_metropole_35238","lon":-1.682284,"lat":48.091114,"address":"14 Rue Louis et René Moine","post_code":"35238","rental_methods":["KEY","ANDROIDPAY","PHONE","CREDITCARD"],"capacity":18},{"station_id":"5571","name":"Sainte-Thérèse","region_id":"region_rennes_metropole_35238","lon":-1.663731,"lat":48.094986,"address":"76 Boulevard Emile Combes","post_code":"35238","rental_methods":["KEY","ANDROIDPAY","PHONE","CREDITCARD"],"capacity":12},{"station_id":"5578","name":"Gros-Chêne","region_id":"region_rennes_metropole_35238","lon":-1.664806,"lat":48.125408,"address":"boulevard Emmanuel Mounier","post_code":"35238","rental_methods":["KEY","ANDROIDPAY","PHONE","CREDITCARD"],"capacity":18},{"station_id":"5579","name":"Les Gayeulles","region_id":"region_rennes_metropole_35238","lon":-1.657272,"lat":48.129464,"address":"23 rue Guy Ropartz","post_code":"35238","rental_methods":["KEY","ANDROIDPAY","PHONE","CREDITCARD"],"capacity":30},{"station_id":"5580","name":"Painlevé","region_id":"region_rennes_metropole_35238","lon":-1.659762,"lat":48.123506,"address":[],"post_code":"35238","rental_methods":["KEY","ANDROIDPAY","PHONE","CREDITCARD"],"capacity":29},{"station_id":"5581","name":"Joliot-Curie - Chateaubriand","region_id":"region_rennes_metropole_35238","lon":-1.651203,"lat":48.124389,"address":"132 boulevard de Vitré","post_code":"35238","rental_methods":["KEY","ANDROIDPAY","PHONE","CREDITCARD"],"capacity":30},{"station_id":"5582","name":"La Poterie","region_id":"region_rennes_metropole_35238","lon":-1.643683,"lat":48.087309,"address":"211 rue de Vern","post_code":"35238","rental_methods":["KEY","ANDROIDPAY","PHONE","CREDITCARD"],"capacity":20},{"station_id":"5585","name":"La Courrouze","region_id":"region_rennes_metropole_35238","lon":-1.694512,"lat":48.099043,"address":"Rue Claude Bernard","post_code":"35238","rental_methods":["KEY","ANDROIDPAY","PHONE","CREDITCARD"],"capacity":20},{"station_id":"5586","name":"Armorique","region_id":"region_rennes_metropole_35238","lon":-1.676161,"lat":48.129949,"address":"Rue de la Taurellerie","post_code":"35238","rental_methods":["KEY","ANDROIDPAY","PHONE","CREDITCARD"],"capacity":24},{"station_id":"5587","name":"Pont de Strasbourg","region_id":"region_rennes_metropole_35238","lon":-1.656028,"lat":48.109859,"address":"92 rue Alphonse Guérin","post_code":"35238","rental_methods":["KEY","ANDROIDPAY","PHONE","CREDITCARD"],"capacity":20},{"station_id":"5588","name":"Gare Sud Féval","region_id":"region_rennes_metropole_35238","lon":-1.673959,"lat":48.102055,"address":"9 C rue de Châtillon","post_code":"35238","rental_methods":["KEY","ANDROIDPAY","PHONE","CREDITCARD"],"capacity":24},{"station_id":"5589","name":"Baud Chardonnet","region_id":"region_rennes_metropole_35238","lon":-1.647933,"lat":48.10995,"address":"2 rue Georges Charpak","post_code":"35238","rental_methods":["KEY","ANDROIDPAY","PHONE","CREDITCARD"],"capacity":24},{"station_id":"5590","name":"Bourgeois","region_id":"region_rennes_metropole_35238","lon":-1.655278,"lat":48.098086,"address":"2 boulevard Léon Bourgeois","post_code":"35238","rental_methods":["KEY","ANDROIDPAY","PHONE","CREDITCARD"],"capacity":24},{"station_id":"5591","name":"Mabilais","region_id":"region_rennes_metropole_35238","lon":-1.693069,"lat":48.105086,"address":"58 rue de Redon","post_code":"35238","rental_methods":["KEY","ANDROIDPAY","PHONE","CREDITCARD"],"capacity":30},{"station_id":"5592","name":"Gares","region_id":"region_rennes_metropole_35238","lon":-1.673312,"lat":48.10432,"address":"6 place de la Gare","post_code":"35238","rental_methods":["KEY","ANDROIDPAY","PHONE","CREDITCARD"],"capacity":50}]}}
