stop_id,stop_code,stop_name,stop_desc,stop_lat,stop_lon,zone_id,stop_url,location_type,parent_station,wheelchair_boarding,platform_code,stop_timezone
4-15004,15004,Anatole France,Rennes,48.11813700,-1.68760000,,,1,,1,,
4-15051,15051,Atalante,Cesson-Sévigné,48.12714600,-1.62802300,,,1,,1,,
4-15052,15052,Beaulieu - Université,Rennes,48.12212900,-1.63911600,,,1,,1,,
4-15050,15050,Cesson - Viasilva,Cesson-Sévigné,48.13149300,-1.62006100,,,1,,1,,
4-15007,15007,Charles de Gaulle,Rennes,48.10546000,-1.67682900,,,1,,1,,
4-15010,15010,Clemenceau,Rennes,48.09348000,-1.67441800,,,1,,1,,
4-15062,15062,Cleunay,Rennes,48.10100200,-1.70640800,,,1,,1,,
4-15060,15060,Colombier,Rennes,48.10589000,-1.68215400,,,1,,1,,
4-15008,15008,Gares,Rennes,48.10384700,-1.67224500,,,1,,1,,
4-15055,15055,Gros-Chêne,Rennes,48.12509300,-1.66446800,,,1,,1,,
4-15011,15011,Henri Fréville,Rennes,48.08767900,-1.67481600,,,1,,1,,
4-15012,15012,Italie,Rennes,48.08656400,-1.66790000,,,1,,1,,
4-15001,15001,J.F. Kennedy,Rennes,48.12129900,-1.71126100,,,1,,1,,
4-15009,15009,Jacques Cartier,Rennes,48.09754300,-1.67545200,,,1,,1,,
4-15053,15053,Joliot-Curie - Chateaubriand,Rennes,48.12411300,-1.65150200,,,1,,1,,
4-15056,15056,Jules Ferry,Rennes,48.11865900,-1.67076600,,,1,,1,,
4-15063,15063,La Courrouze,Saint-Jacques-de-la-Lande,48.09652200,-1.69839900,,,1,,1,,
4-15015,15015,La Poterie,Rennes,48.08749000,-1.64457300,,,1,,1,,
4-15014,15014,Le Blosne,Rennes,48.08773200,-1.65427800,,,1,,1,,
4-15054,15054,Les Gayeulles,Rennes,48.12939500,-1.65730000,,,1,,1,,
4-15061,15061,Mabilais,Rennes,48.10505900,-1.69265100,,,1,,1,,
4-15003,15003,Pontchaillou,Rennes,48.12155700,-1.69340000,,,1,,1,,
4-15006,15006,République,Rennes,48.10975900,-1.67918200,,,1,,1,,
4-15058,15058,Saint-Germain,Rennes,48.11061600,-1.67627300,,,1,,1,,
4-15064,15064,Saint-Jacques - Gaîté,Saint-Jacques-de-la-Lande,48.09204700,-1.70362000,,,1,,1,,
4-15005,15005,Sainte-Anne,Rennes,48.11452500,-1.68050900,,,1,,1,,
4-15013,15013,Triangle,Rennes,48.08643700,-1.66036000,,,1,,1,,
4-15002,15002,Villejean-Université,Rennes,48.12124100,-1.70392900,,,1,,1,,
4-2217,2217,25 Fusillés,Saint-Jacques-de-la-Lande,48.09064500,-1.69501300,,,0,,1,,
4-2271,2271,25 Fusillés,Saint-Jacques-de-la-Lande,48.09050100,-1.69494000,,,0,,1,,
4-2223,2223,Abbé Grimault,Saint-Jacques-de-la-Lande,48.06733400,-1.71688500,,,0,,1,,
4-2233,2233,Abbé Grimault,Saint-Jacques-de-la-Lande,48.06742400,-1.71730500,,,0,,1,,
4-2753,2753,Abords Launay,Noyal-Châtillon-sur-Seiche,48.05288600,-1.68703000,,,0,,2,,
4-2754,2754,Abords Launay,Noyal-Châtillon-sur-Seiche,48.05296300,-1.68705900,,,0,,2,,
4-3818,3818,Abords Lauriais,Bourgbarré,47.96893200,-1.63925300,,,0,,2,,
4-3819,3819,Abords Lauriais,Bourgbarré,47.96873400,-1.63933400,,,0,,2,,
4-2755,2755,Abords Rouvray,Noyal-Châtillon-sur-Seiche,48.05959300,-1.66343300,,,0,,2,,
4-2756,2756,Abords Rouvray,Noyal-Châtillon-sur-Seiche,48.05964800,-1.66363500,,,0,,2,,
4-4003,4003,Acigné Mairie,Acigné,48.13424200,-1.53480100,,,0,,1,,
4-4012,4012,Acigné Mairie,Acigné,48.13415100,-1.53470500,,,0,,1,,
4-2539,2539,Acquêts,Le Rheu,48.09648800,-1.79816000,,,0,,1,,
4-2540,2540,Acquêts,Le Rheu,48.09683000,-1.79811000,,,0,,1,,
4-1500,1500,Agrocampus,Rennes,48.11320300,-1.70450600,,,0,,1,,
4-1502,1502,Agrocampus,Rennes,48.11394500,-1.70543600,,,0,,1,,
4-2366,2366,Aire du 8 Mai,Bruz,48.02687800,-1.74550400,,,0,,2,,
4-2237,2237,Aire Libre,Saint-Jacques-de-la-Lande,48.06737200,-1.72167400,,,0,,1,,
4-2243,2243,Aire Libre,Saint-Jacques-de-la-Lande,48.06739500,-1.72185400,,,0,,1,,
4-4362,4362,Alexandre Gilois,Saint-Erblon,48.01619600,-1.65151700,,,0,,1,,
4-4363,4363,Alexandre Gilois,Saint-Erblon,48.01632300,-1.65134100,,,0,,1,,
4-4203,4203,Alfred de Musset,Chavagne,48.05512000,-1.79008600,,,0,,1,,
4-4210,4210,Alfred de Musset,Chavagne,48.05488500,-1.79000300,,,0,,1,,
4-1622,1622,Alma,Rennes,48.08415700,-1.67916600,,,0,,1,,
4-1623,1623,Alma,Rennes,48.08396100,-1.67830700,,,0,,1,,
4-1727,1727,Alma Sud,Rennes,48.08289100,-1.68234500,,,0,,1,,
4-2838,2838,Alphasis,Saint-Grégoire,48.15390900,-1.69690000,,,0,,1,,
4-2839,2839,Alphasis,Saint-Grégoire,48.15439200,-1.69664000,,,0,,1,,
4-1046,1046,Anatole France,Rennes,48.11824000,-1.68940300,,,0,,1,,
4-1096,1096,Anatole France,Rennes,48.11819300,-1.68924800,,,0,,1,,
4-1186,1186,Anatole France,Rennes,48.11857700,-1.68816700,,,0,,1,,
4-1194,1194,Anatole France,Rennes,48.11817300,-1.68721700,,,0,,1,,
4-5004,5004,Anatole France,Rennes,48.11805000,-1.68752900,,,0,4-15004,1,,
4-5019,5019,Anatole France,Rennes,48.11811900,-1.68745400,,,0,4-15004,1,,
4-2367,2367,Anita Conti,Bruz,48.03335300,-1.73360200,,,0,,2,,
4-4151,4151,Anjou,Brécé,48.10956300,-1.48016900,,,0,,2,,
4-3304,3304,Anne de Bretagne,Thorigné-Fouillard,48.15565800,-1.58084800,,,0,,1,,
4-3314,3314,Anne de Bretagne,Thorigné-Fouillard,48.15603400,-1.58060800,,,0,,1,,
4-3734,3734,Ardriers,Saint-Gilles,48.15235800,-1.86660200,,,0,,2,,
4-2912,2912,Argoat,Chartres-de-Bretagne,48.03545500,-1.70627000,,,0,,1,,
4-2924,2924,Argoat,Chartres-de-Bretagne,48.03553400,-1.70609500,,,0,,1,,
4-1446,1446,Argonautes,Rennes,48.08958300,-1.67499700,,,0,,1,,
4-1460,1460,Argonautes,Rennes,48.09130800,-1.67415900,,,0,,1,,
4-1625,1625,Armorique,Rennes,48.13073000,-1.67578100,,,0,,1,,
4-1626,1626,Armorique,Rennes,48.13063900,-1.67701100,,,0,,1,,
4-1007,1007,Assomption,Rennes,48.12144600,-1.65503600,,,0,,1,,
4-1033,1033,Assomption,Rennes,48.12128000,-1.65502900,,,0,,1,,
4-1614,1614,Assomption,Rennes,48.12267600,-1.65795700,,,0,,1,,
4-1536,1536,Atalante,Rennes,48.12702900,-1.62943200,,,0,,1,,
4-2045,2045,Atalante,Cesson-Sévigné,48.12735000,-1.62834100,,,0,,1,,
4-2046,2046,Atalante,Cesson-Sévigné,48.12731000,-1.62790000,,,0,,1,,
4-2129,2129,Atalante,Rennes,48.12767000,-1.62902100,,,0,,1,,
4-5051,5051,Atalante,Cesson-Sévigné,48.12711900,-1.62826300,,,0,4-15051,1,,
4-5078,5078,Atalante,Cesson-Sévigné,48.12715300,-1.62785900,,,0,4-15051,1,,
4-1665,1665,Atalante Champeaux,Rennes,48.11324800,-1.71367100,,,0,,1,,
4-1666,1666,Atalante Champeaux,Rennes,48.11335100,-1.71357000,,,0,,1,,
4-2916,2916,Auditoire,Chartres-de-Bretagne,48.04168300,-1.70248700,,,0,,2,,
4-2920,2920,Auditoire,Chartres-de-Bretagne,48.04156100,-1.70282900,,,0,,1,,
4-2267,2267,Auriol,Saint-Jacques-de-la-Lande,48.07527800,-1.72948400,,,0,,2,,
4-2268,2268,Auriol,Saint-Jacques-de-la-Lande,48.07518000,-1.72938800,,,0,,2,,
4-4204,4204,Avenir,Chavagne,48.05398400,-1.78376200,,,0,,1,,
4-4209,4209,Avenir,Chavagne,48.05411500,-1.78374600,,,0,,1,,
4-2277,2277,Aéroport,Saint-Jacques-de-la-Lande,48.06794100,-1.72690700,,,0,,1,,
4-3171,3171,Baiersdorf,Pacé,48.15162000,-1.75980500,,,0,,1,,
4-3172,3172,Baiersdorf,Pacé,48.15108600,-1.75956000,,,0,,1,,
4-2507,2507,Barberais,Le Rheu,48.09750200,-1.78127500,,,0,,1,,
4-2514,2514,Barberais,Le Rheu,48.09768000,-1.78156300,,,0,,1,,
4-3148,3148,Bas Sommier,Pacé,48.13063400,-1.79483800,,,0,,2,,
4-2033,2033,Bas Village,Cesson-Sévigné,48.10133000,-1.62346700,,,0,,1,,
4-2036,2036,Bas Village,Cesson-Sévigné,48.10120600,-1.62400300,,,0,,1,,
4-2462,2462,Basse Robinais,Betton,48.19383200,-1.62511900,,,0,,1,,
4-2463,2463,Basse Robinais,Betton,48.19402500,-1.62496600,,,0,,1,,
4-4382,4382,Basses Noës,Saint-Erblon,48.01583800,-1.64774600,,,0,,1,,
4-4383,4383,Basses Noës,Saint-Erblon,48.01506100,-1.64748600,,,0,,1,,
4-1177,1177,Beaulieu - Université,Rennes,48.12231700,-1.63959200,,,0,,1,,
4-1203,1203,Beaulieu - Université,Rennes,48.12230800,-1.63918300,,,0,,1,,
4-1292,1292,Beaulieu - Université,Rennes,48.12197500,-1.63843800,,,0,,1,,
4-1313,1313,Beaulieu - Université,Rennes,48.12219000,-1.63832500,,,0,,1,,
4-5052,5052,Beaulieu - Université,Rennes,48.12206800,-1.63940900,,,0,4-15052,1,,
4-5077,5077,Beaulieu - Université,Rennes,48.12214000,-1.63894300,,,0,4-15052,1,,
4-1175,1175,Beaulieu Chimie,Rennes,48.11710100,-1.63389600,,,0,,1,,
4-1312,1312,Beaulieu Chimie,Rennes,48.11658100,-1.63394400,,,0,,1,,
4-1739,1739,Beaulieu Chimie,Rennes,48.11771400,-1.63423900,,,0,,1,,
4-1178,1178,Beaulieu Cité U,Rennes,48.12083200,-1.64386500,,,0,,1,,
4-1202,1202,Beaulieu Cité U,Rennes,48.12059200,-1.64421500,,,0,,1,,
4-1176,1176,Beaulieu INSA,Rennes,48.11902800,-1.63521000,,,0,,1,,
4-1204,1204,Beaulieu INSA,Rennes,48.11903900,-1.63504500,,,0,,1,,
4-3169,3169,Beausoleil,Pacé,48.15261800,-1.76356300,,,0,,1,,
4-3170,3170,Beausoleil,Pacé,48.15250100,-1.76374900,,,0,,1,,
4-4506,4506,Beauvais,Gévezé,48.21753700,-1.79112000,,,0,,1,,
4-4513,4513,Beauvais,Gévezé,48.21742600,-1.79103700,,,0,,2,,
4-2602,2602,Bel Air,Vern-sur-Seiche,48.04340100,-1.60164700,,,0,,1,,
4-2620,2620,Bel Air,Vern-sur-Seiche,48.04355800,-1.60178400,,,0,,1,,
4-1256,1256,Bellangerais,Rennes,48.13259100,-1.67161400,,,0,,1,,
4-1286,1286,Bellangerais,Rennes,48.13271900,-1.67229300,,,0,,1,,
4-1411,1411,Bellangerais,Rennes,48.13211100,-1.67291000,,,0,,1,,
4-1426,1426,Bellangerais,Rennes,48.13212400,-1.67263500,,,0,,1,,
4-4657,4657,Belle Arrivée,Cintré,48.10236900,-1.89489700,,,0,,2,,
4-3505,3505,Belle Epine,Montgermont,48.15530400,-1.71089500,,,0,,1,,
4-3510,3510,Belle Epine,Montgermont,48.15555800,-1.71074300,,,0,,1,,
4-3222,3222,Belle Etoile,Orgères,47.97683600,-1.67464900,,,0,,2,,
4-3230,3230,Belle Etoile,Orgères,47.97669500,-1.67477200,,,0,,2,,
4-3254,3254,Belle Etoile,Orgères,47.97642400,-1.67464100,,,0,,2,,
4-2044,2044,Belle Fontaine,Cesson-Sévigné,48.12736200,-1.62431000,,,0,,1,,
4-2047,2047,Belle Fontaine,Cesson-Sévigné,48.12721300,-1.62396700,,,0,,1,,
4-2248,2248,Bellevue,Saint-Jacques-de-la-Lande,48.07934600,-1.73312800,,,0,,2,,
4-2255,2255,Bellevue,Saint-Jacques-de-la-Lande,48.07876800,-1.73252800,,,0,,2,,
4-1295,1295,Berger,Rennes,48.11676200,-1.70460800,,,0,,1,,
4-1309,1309,Berger,Rennes,48.11674500,-1.70480300,,,0,,1,,
4-1517,1517,Berry,Rennes,48.11856500,-1.71357400,,,0,,1,,
4-1521,1521,Berry,Rennes,48.11844500,-1.71382800,,,0,,1,,
4-4051,4051,Bersandières,La Chapelle-des-Fougeretz,48.17714000,-1.72646600,,,0,,2,,
4-9232,9232,Bersandières,La Chapelle-des-Fougeretz,48.17744300,-1.72664600,,,0,,2,,
4-1506,1506,Berthault,Rennes,48.10676600,-1.73027700,,,0,,1,,
4-1508,1508,Berthault,Rennes,48.10669300,-1.72912700,,,0,,1,,
4-1728,1728,Berthault,Rennes,48.10587400,-1.72934100,,,0,,1,,
4-4069,4069,Besneraie,La Chapelle-des-Fougeretz,48.18312900,-1.72600100,,,0,,1,,
4-4073,4073,Besneraie,La Chapelle-des-Fougeretz,48.18253400,-1.72736000,,,0,,1,,
4-4074,4074,Besneraie,La Chapelle-des-Fougeretz,48.18367700,-1.72516000,,,0,,1,,
4-2406,2406,Betton Centre,Betton,48.18112300,-1.63789800,,,0,,1,,
4-2417,2417,Betton Centre,Betton,48.18174700,-1.63845700,,,0,,1,,
4-2437,2437,Betton Centre,Betton,48.18162000,-1.63927100,,,0,,1,,
4-2405,2405,Betton Mairie,Betton,48.18189400,-1.64178300,,,0,,1,,
4-2418,2418,Betton Mairie,Betton,48.18198600,-1.64139900,,,0,,1,,
4-2430,2430,Betton Rue de Rennes,Betton,48.17599900,-1.63961900,,,0,,1,,
4-2436,2436,Betton Rue de Rennes,Betton,48.17597400,-1.63946000,,,0,,1,,
4-2411,2411,Betton Vallée,Betton,48.16172400,-1.64786800,,,0,,1,,
4-2412,2412,Betton Vallée,Betton,48.16262000,-1.64712500,,,0,,1,,
4-1336,1336,Bigot de Préameneu,Rennes,48.09798200,-1.66640500,,,0,,1,,
4-1364,1364,Bigot de Préameneu,Rennes,48.09804800,-1.66709400,,,0,,1,,
4-1442,1442,Binquenais,Rennes,48.09163900,-1.66733000,,,0,,1,,
4-1464,1464,Binquenais,Rennes,48.09129500,-1.66629500,,,0,,1,,
4-1443,1443,Binquenais Collège,Rennes,48.09162400,-1.66244800,,,0,,1,,
4-1463,1463,Binquenais Collège,Rennes,48.09132800,-1.66312900,,,0,,1,,
4-4660,4660,Bintin,Cintré,48.11437300,-1.90327700,,,0,,2,,
4-3238,3238,Blés d'Or,Orgères,47.99180500,-1.67220300,,,0,,2,,
4-3239,3239,Blés d'Or,Orgères,47.99191000,-1.67231000,,,0,,2,,
4-1268,1268,Boberil,Rennes,48.08374300,-1.69363700,,,0,,1,,
4-2335,2335,Bobinais,Bruz,48.02631100,-1.73451000,,,0,,1,,
4-2340,2340,Bobinais,Bruz,48.02598700,-1.73456600,,,0,,1,,
4-3305,3305,Bocage,Thorigné-Fouillard,48.15897300,-1.57963100,,,0,,1,,
4-3313,3313,Bocage,Thorigné-Fouillard,48.15916900,-1.57979800,,,0,,1,,
4-3901,3901,Bois Esnault,Pont-Péan,47.99986100,-1.69699000,,,0,,1,,
4-3924,3924,Bois Esnault,Pont-Péan,47.99997100,-1.69679300,,,0,,2,,
4-1298,1298,Bois Labbé,Rennes,48.12569800,-1.70301700,,,0,,1,,
4-1306,1306,Bois Labbé,Rennes,48.12525000,-1.70318900,,,0,,1,,
4-6015,6015,Bois Menu,Romillé,48.23501500,-1.86482000,,,0,,2,,
4-6016,6016,Bois Menu,Romillé,48.23489600,-1.86505500,,,0,,2,,
4-1513,1513,Bois Perrin,Rennes,48.11537800,-1.64849500,,,0,,1,,
4-1516,1516,Bois Perrin,Rennes,48.11597300,-1.64836700,,,0,,2,,
4-2039,2039,Bordage,Cesson-Sévigné,48.11446200,-1.60047200,,,0,,1,,
4-2086,2086,Bordage,Cesson-Sévigné,48.11427900,-1.60041500,,,0,,1,,
4-4715,4715,Bossardière,Laillé,47.94162000,-1.69627500,,,0,,2,,
4-4716,4716,Bossardière,Laillé,47.94146000,-1.69625200,,,0,,2,,
4-4019,4019,Botrel,Acigné,48.14065000,-1.52747900,,,0,,1,,
4-4020,4020,Botrel,Acigné,48.14016600,-1.52735100,,,0,,1,,
4-4007,4007,Boulais,Acigné,48.13909400,-1.55874400,,,0,,1,,
4-4008,4008,Boulais,Thorigné-Fouillard,48.13950400,-1.56147100,,,0,,1,,
4-4717,4717,Boulais Pochetière,Laillé,47.95562000,-1.70102100,,,0,,2,,
4-4718,4718,Boulais Pochetière,Laillé,47.95555700,-1.70109900,,,0,,2,,
4-2505,2505,Bouleaux,Le Rheu,48.10153500,-1.79445300,,,0,,1,,
4-2516,2516,Bouleaux,Le Rheu,48.10184500,-1.79502000,,,0,,1,,
4-1518,1518,Bourbonnais,Rennes,48.12058600,-1.71060100,,,0,,1,,
4-1520,1520,Bourbonnais,Rennes,48.12047900,-1.70954400,,,0,,1,,
4-3953,3953,Bourg,Saint-Sulpice-la-Forêt,48.21790700,-1.58145700,,,0,,1,,
4-3961,3961,Bourg,Saint-Sulpice-la-Forêt,48.21775200,-1.58136300,,,0,,1,,
4-3802,3802,Bourgbarré Mairie,Bourgbarré,47.99492600,-1.61423300,,,0,,1,,
4-3809,3809,Bourgbarré Mairie,Bourgbarré,47.99472700,-1.61413800,,,0,,1,,
4-3833,3833,Bourgbarré Mairie,Bourgbarré,47.99438800,-1.61573900,,,0,,2,,
4-2007,2007,Bourgchevreuil,Cesson-Sévigné,48.12312100,-1.60051700,,,0,,1,,
4-2029,2029,Bourgchevreuil,Cesson-Sévigné,48.12313100,-1.60071900,,,0,,1,,
4-1061,1061,Bourgeois,Rennes,48.09725500,-1.65425400,,,0,,1,,
4-1081,1081,Bourgeois,Rennes,48.09806000,-1.65527500,,,0,,1,,
4-1439,1439,Bourgeois,Rennes,48.09823400,-1.65513700,,,0,,1,,
4-1560,1560,Bourgeois,Rennes,48.09777300,-1.65672400,,,0,,1,,
4-3003,3003,Bourgogne,Chantepie,48.08915900,-1.61260300,,,0,,1,,
4-3012,3012,Bourgogne,Chantepie,48.08901600,-1.61267700,,,0,,1,,
4-1067,1067,Bourgueil,Rennes,48.08945500,-1.63528100,,,0,,1,,
4-1075,1075,Bourgueil,Rennes,48.08948600,-1.63556800,,,0,,1,,
4-2154,2154,Bouriande,Cesson-Sévigné,48.12752800,-1.62104100,,,0,,1,,
4-2155,2155,Bouriande,Cesson-Sévigné,48.12773100,-1.62093100,,,0,,1,,
4-3518,3518,Boussardière,Montgermont,48.14396700,-1.70863800,,,0,,2,,
4-4709,4709,Bout de Lande,Laillé,47.97992600,-1.69307300,,,0,,2,,
4-4710,4710,Bout de Lande,Laillé,47.97983600,-1.69326400,,,0,,2,,
4-4402,4402,Bouvrais,Le Verger,48.07024100,-1.92899700,,,0,,1,,
4-4403,4403,Bouvrais,Le Verger,48.07005600,-1.93027300,,,0,,1,,
4-1002,1002,Bouzat,Rennes,48.12828300,-1.63778200,,,0,,1,,
4-1038,1038,Bouzat,Rennes,48.12820900,-1.63711800,,,0,,1,,
4-2705,2705,Bray,Noyal-Châtillon-sur-Seiche,48.02908000,-1.65979900,,,0,,2,,
4-2724,2724,Bray,Noyal-Châtillon-sur-Seiche,48.02861900,-1.65990700,,,0,,2,,
4-4405,4405,Breil,Le Verger,48.06691600,-1.94641600,,,0,,2,,
4-4406,4406,Breil,Le Verger,48.06699700,-1.94649800,,,0,,2,,
4-3014,3014,Breillou,Chantepie,48.09808700,-1.62290800,,,0,,1,,
4-3015,3015,Breillou,Chantepie,48.09832100,-1.62283600,,,0,,1,,
4-3033,3033,Breillou,Chantepie,48.09822400,-1.62115300,,,0,,1,,
4-3034,3034,Breillou,Chantepie,48.09855300,-1.62135400,,,0,,1,,
4-1048,1048,Brest Verdun,Rennes,48.11335700,-1.69347600,,,0,,1,,
4-1094,1094,Brest Verdun,Rennes,48.11320800,-1.69329000,,,0,,1,,
4-2608,2608,Bretonnière,Vern-sur-Seiche,48.05838000,-1.61648600,,,0,,1,,
4-2615,2615,Bretonnière,Vern-sur-Seiche,48.05894400,-1.61668300,,,0,,1,,
4-2403,2403,Brocéliande,Betton,48.18072200,-1.65193700,,,0,,2,,
4-2420,2420,Brocéliande,Betton,48.18057900,-1.65222900,,,0,,2,,
4-4514,4514,Brosse Halée,Gévezé,48.18773200,-1.78851300,,,0,,2,,
4-4515,4515,Brosse Halée,Gévezé,48.18791400,-1.78833300,,,0,,2,,
4-2365,2365,Brossolette,Bruz,48.02048900,-1.74343800,,,0,,2,,
4-2301,2301,Bruz Centre,Bruz,48.02419700,-1.74458300,,,0,,1,,
4-2361,2361,Bruz Centre,Bruz,48.02449300,-1.74461900,,,0,,1,,
4-2372,2372,Bruz Gare,Bruz,48.02907800,-1.75265600,,,0,,1,,
4-1452,1452,Bréquigny Piscine,Rennes,48.08985100,-1.69098700,,,0,,1,,
4-1454,1454,Bréquigny Piscine,Rennes,48.08958100,-1.69124100,,,0,,1,,
4-1765,1765,Buffon,Rennes,48.10345000,-1.71165800,,,0,,2,,
4-1766,1766,Buffon,Rennes,48.10341000,-1.71238900,,,0,,2,,
4-2122,2122,Buisson,Cesson-Sévigné,48.10485400,-1.63016900,,,0,,1,,
4-2123,2123,Buisson,Cesson-Sévigné,48.10460400,-1.63041500,,,0,,1,,
4-4800,4800,Bécherel Centre,Bécherel,48.29624900,-1.94536000,,,0,,1,,
4-4801,4801,Bécherel Centre,Bécherel,48.29686000,-1.94381000,,,0,,1,,
4-4805,4805,Bécherel Ecole,Bécherel,48.29693100,-1.94394200,,,0,,1,,
4-2071,2071,Calendrou,Cesson-Sévigné,48.14041500,-1.61690700,,,0,,1,,
4-2072,2072,Calendrou,Cesson-Sévigné,48.14059200,-1.61632900,,,0,,1,,
4-3902,3902,Caliorne,Pont-Péan,48.00650500,-1.69859800,,,0,,1,,
4-3915,3915,Caliorne,Pont-Péan,48.00629600,-1.69863300,,,0,,1,,
4-2905,2905,Callouët,Chartres-de-Bretagne,48.04233700,-1.71203800,,,0,,1,,
4-2908,2908,Callouët,Chartres-de-Bretagne,48.04139400,-1.71253000,,,0,,1,,
4-2918,2918,Callouët,Chartres-de-Bretagne,48.04199600,-1.71091900,,,0,,1,,
4-1062,1062,Calmette,Rennes,48.09511000,-1.65056600,,,0,,2,,
4-1080,1080,Calmette,Rennes,48.09595300,-1.65154300,,,0,,2,,
4-4202,4202,Calvaire,Chavagne,48.05199200,-1.79066000,,,0,,1,,
4-4211,4211,Calvaire,Chavagne,48.05243800,-1.79059200,,,0,,1,,
4-2805,2805,Camus,Saint-Grégoire,48.15911600,-1.68136900,,,0,,1,,
4-2825,2825,Camus,Saint-Grégoire,48.15911800,-1.68075000,,,0,,1,,
4-1130,1130,Canada,Rennes,48.08516800,-1.68253700,,,0,,1,,
4-1134,1134,Canada,Rennes,48.08520700,-1.68225900,,,0,,1,,
4-3110,3110,Carré Dumaine,Pacé,48.14575800,-1.77075300,,,0,,1,,
4-3114,3114,Carré Dumaine,Pacé,48.14602200,-1.77049200,,,0,,1,,
4-1070,1070,CARSAT,Rennes,48.09449200,-1.63788900,,,0,,1,,
4-1072,1072,CARSAT,Rennes,48.09492200,-1.63800000,,,0,,1,,
4-1320,1320,CARSAT,Rennes,48.09492700,-1.63729600,,,0,,1,,
4-1323,1323,CARSAT,Rennes,48.09547400,-1.63806900,,,0,,1,,
4-2708,2708,Centre,Noyal-Châtillon-sur-Seiche,48.04239500,-1.66552200,,,0,,1,,
4-2721,2721,Centre,Noyal-Châtillon-sur-Seiche,48.04242900,-1.66574100,,,0,,2,,
4-2728,2728,Centre,Noyal-Châtillon-sur-Seiche,48.04269500,-1.66603900,,,0,,1,,
4-2731,2731,Centre,Noyal-Châtillon-sur-Seiche,48.04297000,-1.66604600,,,0,,1,,
4-3801,3801,Centre de Loisirs,Bourgbarré,47.99014200,-1.61385500,,,0,,1,,
4-2238,2238,Centre Météo,Saint-Jacques-de-la-Lande,48.06500700,-1.72448300,,,0,,1,,
4-2242,2242,Centre Météo,Saint-Jacques-de-la-Lande,48.06505900,-1.72463900,,,0,,1,,
4-3162,3162,Centre scolaire Pacé,Pacé,48.15231100,-1.77123100,,,0,,2,,
4-2863,2863,Cerisaie,Saint-Grégoire,48.13705500,-1.69055900,,,0,,1,,
4-2864,2864,Cerisaie,Saint-Grégoire,48.13694100,-1.69037500,,,0,,1,,
4-2131,2131,Cesson - Viasilva,Cesson-Sévigné,48.13264000,-1.61996200,,,0,,1,,
4-2133,2133,Cesson - Viasilva,Cesson-Sévigné,48.13245200,-1.61984400,,,0,,1,,
4-2136,2136,Cesson - Viasilva,Cesson-Sévigné,48.13265200,-1.62051100,,,0,,1,,
4-2137,2137,Cesson - Viasilva,Cesson-Sévigné,48.13242200,-1.62011500,,,0,,1,,
4-2138,2138,Cesson - Viasilva,Cesson-Sévigné,48.13224300,-1.61981900,,,0,,1,,
4-2139,2139,Cesson - Viasilva,Cesson-Sévigné,48.13259100,-1.61955300,,,0,,1,,
4-2140,2140,Cesson - Viasilva,Cesson-Sévigné,48.13277400,-1.61986500,,,0,,1,,
4-5050,5050,Cesson - Viasilva,Cesson-Sévigné,48.13142600,-1.62024700,,,0,4-15050,1,,
4-5079,5079,Cesson - Viasilva,Cesson-Sévigné,48.13154900,-1.61986200,,,0,4-15050,1,,
4-2041,2041,Cesson Collège,Cesson-Sévigné,48.12051400,-1.59954300,,,0,,1,,
4-2050,2050,Cesson Collège,Cesson-Sévigné,48.12024400,-1.59927500,,,0,,1,,
4-2057,2057,Cesson Gare,Cesson-Sévigné,48.11386100,-1.60329500,,,0,,1,,
4-2065,2065,Cesson Gare,Cesson-Sévigné,48.11398400,-1.60320400,,,0,,1,,
4-2002,2002,Cesson Hôpital Privé,Cesson-Sévigné,48.13023300,-1.62766400,,,0,,1,,
4-2003,2003,Cesson Hôpital Privé,Cesson-Sévigné,48.13007100,-1.62802600,,,0,,1,,
4-2056,2056,Cesson Mairie,Cesson-Sévigné,48.11855700,-1.60452900,,,0,,1,,
4-2066,2066,Cesson Mairie,Cesson-Sévigné,48.11831200,-1.60419100,,,0,,1,,
4-2055,2055,Cesson Piscine,Cesson-Sévigné,48.11996100,-1.60217900,,,0,,1,,
4-2067,2067,Cesson Piscine,Cesson-Sévigné,48.12038100,-1.60237100,,,0,,1,,
4-2040,2040,Chalotais,Cesson-Sévigné,48.11616700,-1.60037700,,,0,,1,,
4-2051,2051,Chalotais,Cesson-Sévigné,48.11584700,-1.60073400,,,0,,1,,
4-1421,1421,Chambre Agriculture,Rennes,48.11463600,-1.71550300,,,0,,1,,
4-1643,1643,Chambre Agriculture,Rennes,48.11482300,-1.71562400,,,0,,1,,
4-2844,2844,Champ Daguet,Saint-Grégoire,48.15528600,-1.67143500,,,0,,1,,
4-2401,2401,Champ Devant,Betton,48.17702900,-1.65113400,,,0,,1,,
4-4365,4365,Champ du Puit,Saint-Erblon,48.02168700,-1.65916200,,,0,,2,,
4-4366,4366,Champ du Puit,Saint-Erblon,48.02162700,-1.65902100,,,0,,2,,
4-2424,2424,Champ Giron,Thorigné-Fouillard,48.17089700,-1.62229200,,,0,,2,,
4-2427,2427,Champ Giron,Thorigné-Fouillard,48.17048000,-1.62194900,,,0,,2,,
4-2622,2622,Champ Martin,Vern-sur-Seiche,48.05988600,-1.61310900,,,0,,2,,
4-2641,2641,Champ Martin,Vern-sur-Seiche,48.05906800,-1.61301200,,,0,,2,,
4-4352,4352,Champ Mulon,Saint-Erblon,48.01881000,-1.65756600,,,0,,1,,
4-4355,4355,Champ Mulon,Saint-Erblon,48.01883000,-1.65781600,,,0,,1,,
4-2336,2336,Champ Niguel,Bruz,48.03024300,-1.73438000,,,0,,1,,
4-2339,2339,Champ Niguel,Bruz,48.02832900,-1.73561700,,,0,,1,,
4-3759,3759,Champ Noël,Vezin-le-Coquet,48.11761100,-1.73137700,,,0,,2,,
4-3760,3760,Champ Noël,Vezin-le-Coquet,48.11776500,-1.73122100,,,0,,2,,
4-4271,4271,Champ Rouget,La Chapelle-Thouarault,48.13137600,-1.84926400,,,0,,2,,
4-4272,4272,Champ Rouget,La Chapelle-Thouarault,48.13141600,-1.84919900,,,0,,2,,
4-3167,3167,Champalaune,Pacé,48.15456700,-1.76380900,,,0,,1,,
4-3168,3168,Champalaune,Pacé,48.15450200,-1.76396700,,,0,,1,,
4-2085,2085,Champelé,Cesson-Sévigné,48.11615200,-1.58247200,,,0,,1,,
4-2106,2106,Champelé,Cesson-Sévigné,48.11603900,-1.58235100,,,0,,1,,
4-1384,1384,Champion de Cicé,Rennes,48.10265100,-1.70385600,,,0,,1,,
4-1396,1396,Champion de Cicé,Rennes,48.10218200,-1.70506300,,,0,,1,,
4-3770,3770,Champs Bleus,Vezin-le-Coquet,48.11901100,-1.74960100,,,0,,1,,
4-3771,3771,Champs Bleus,Vezin-le-Coquet,48.11916000,-1.74986400,,,0,,1,,
4-1128,1128,Champs Manceaux,Rennes,48.09107000,-1.68218700,,,0,,1,,
4-1136,1136,Champs Manceaux,Rennes,48.09108600,-1.68201900,,,0,,1,,
4-2017,2017,Champs Péans,Cesson-Sévigné,48.11412100,-1.63036700,,,0,,1,,
4-2019,2019,Champs Péans,Cesson-Sévigné,48.11403700,-1.62800800,,,0,,1,,
4-3037,3037,Chantepie Eglise,Chantepie,48.08740600,-1.61653500,,,0,,1,,
4-3038,3038,Chantepie Eglise,Chantepie,48.08749700,-1.61678900,,,0,,1,,
4-3006,3006,Chantepie Mairie,Chantepie,48.08848000,-1.61920000,,,0,,1,,
4-3009,3009,Chantepie Mairie,Chantepie,48.08835100,-1.61909100,,,0,,1,,
4-4850,4850,Chapelle-Chaussée,La Chapelle-Chaussée,48.27196100,-1.85691800,,,0,,1,,
4-4851,4851,Chapelle-Chaussée,La Chapelle-Chaussée,48.27202600,-1.85673300,,,0,,1,,
4-2452,2452,Chaperonnais,Betton,48.17544600,-1.66238800,,,0,,1,,
4-2453,2453,Chaperonnais,Betton,48.17546300,-1.66226800,,,0,,1,,
4-3123,3123,Chapitre,Pacé,48.17408800,-1.78940100,,,0,,2,,
4-3124,3124,Chapitre,Pacé,48.17536600,-1.78998100,,,0,,2,,
4-1121,1121,Charles de Gaulle,Rennes,48.10606700,-1.67781700,,,0,,1,,
4-1143,1143,Charles de Gaulle,Rennes,48.10608100,-1.67755800,,,0,,1,,
4-1567,1567,Charles de Gaulle,Rennes,48.10621300,-1.67742500,,,0,,1,,
4-1595,1595,Charles de Gaulle,Rennes,48.10583300,-1.67730000,,,0,,1,,
4-1740,1740,Charles de Gaulle,Rennes,48.10477900,-1.67729300,,,0,,1,,
4-5007,5007,Charles de Gaulle,Rennes,48.10547300,-1.67710700,,,0,4-15007,1,,
4-5022,5022,Charles de Gaulle,Rennes,48.10554100,-1.67702300,,,0,4-15007,1,,
4-2032,2032,Charmilles,Cesson-Sévigné,48.10622900,-1.62134200,,,0,,1,,
4-2061,2061,Charmilles,Cesson-Sévigné,48.10651500,-1.62124300,,,0,,1,,
4-2917,2917,Chartres Centre,Chartres-de-Bretagne,48.04234000,-1.70656600,,,0,,1,,
4-2919,2919,Chartres Centre,Chartres-de-Bretagne,48.04223300,-1.70731700,,,0,,1,,
4-2903,2903,Chaussairie,Chartres-de-Bretagne,48.03336500,-1.71164400,,,0,,1,,
4-2925,2925,Chaussairie,Chartres-de-Bretagne,48.03354700,-1.71189800,,,0,,1,,
4-6013,6013,Chauvrais Malabry,Romillé,48.24119300,-1.86189400,,,0,,2,,
4-6014,6014,Chauvrais Malabry,Romillé,48.24029100,-1.86411800,,,0,,2,,
4-3904,3904,Chemin Vert,Pont-Péan,48.01297300,-1.70287900,,,0,,1,,
4-3913,3913,Chemin Vert,Pont-Péan,48.01292400,-1.70317300,,,0,,1,,
4-4259,4259,Cherterie,La Chapelle-Thouarault,48.13313200,-1.85579400,,,0,,2,,
4-4262,4262,Cherterie,La Chapelle-Thouarault,48.13295000,-1.85556700,,,0,,2,,
4-3952,3952,Chesnais,Saint-Sulpice-la-Forêt,48.22326100,-1.57635200,,,0,,1,,
4-3962,3962,Chesnais,Saint-Sulpice-la-Forêt,48.22312600,-1.57667900,,,0,,1,,
4-4607,4607,Chevaigné Gare,Chevaigné,48.20764100,-1.63084600,,,0,,1,,
4-4608,4608,Chevaigné Gare,Chevaigné,48.20796300,-1.63054900,,,0,,1,,
4-4601,4601,Chevaigné Mairie,Chevaigné,48.21178200,-1.63033700,,,0,,1,,
4-4606,4606,Chevaigné Mairie,Chevaigné,48.21196100,-1.63030700,,,0,,1,,
4-4507,4507,Cheval Blanc,Gévezé,48.22178300,-1.80232700,,,0,,1,,
4-4531,4531,Cheval Blanc,Gévezé,48.22176700,-1.80248700,,,0,,2,,
4-4609,4609,Chopinais,Chevaigné,48.19914500,-1.62745100,,,0,,2,,
4-4610,4610,Chopinais,Chevaigné,48.19922300,-1.62778800,,,0,,2,,
4-2814,2814,CHP Saint-Grégoire,Saint-Grégoire,48.14314200,-1.68646700,,,0,,1,,
4-2817,2817,CHP Saint-Grégoire,Saint-Grégoire,48.14292400,-1.68667200,,,0,,1,,
4-4706,4706,Châtaigneraie,Laillé,47.97919400,-1.72421300,,,0,,1,,
4-4707,4707,Châtaigneraie,Laillé,47.97928000,-1.72448400,,,0,,1,,
4-4721,4721,Château d'Eau,Laillé,47.97436100,-1.69767400,,,0,,2,,
4-4722,4722,Château d'Eau,Laillé,47.97464800,-1.69856700,,,0,,1,,
4-2114,2114,Château de Vaux,Cesson-Sévigné,48.13746400,-1.62225200,,,0,,1,,
4-2115,2115,Château de Vaux,Cesson-Sévigné,48.13747200,-1.62198600,,,0,,1,,
4-2130,2130,Château Monniais,Cesson-Sévigné,48.10823600,-1.60050500,,,0,,2,,
4-1117,1117,Châteaudun,Rennes,48.11252800,-1.66679700,,,0,,1,,
4-2374,2374,Châteliers,Bruz,48.02412000,-1.75294700,,,0,,1,,
4-2375,2375,Châteliers,Bruz,48.02427900,-1.75282500,,,0,,1,,
4-1334,1334,Châtillon,Rennes,48.09771600,-1.67130000,,,0,,1,,
4-1366,1366,Châtillon,Rennes,48.09779700,-1.67092000,,,0,,1,,
4-1217,1217,Chèques Postaux,Rennes,48.10829200,-1.69437600,,,0,,1,,
4-1239,1239,Chèques Postaux,Rennes,48.10823700,-1.69424700,,,0,,1,,
4-4068,4068,Chêne aux Dames,La Chapelle-des-Fougeretz,48.17476300,-1.72454000,,,0,,2,,
4-3427,3427,Chêne Centenaire,Nouvoitou,48.03990400,-1.54090700,,,0,,1,,
4-3428,3428,Chêne Centenaire,Nouvoitou,48.03994700,-1.54149500,,,0,,1,,
4-2112,2112,Chêne Germain,Cesson-Sévigné,48.13077600,-1.62289200,,,0,,1,,
4-2113,2113,Chêne Germain,Cesson-Sévigné,48.13084700,-1.62323400,,,0,,1,,
4-4105,4105,Chêne Hervé,Corps-Nuds,47.98205300,-1.58824800,,,0,,1,,
4-4108,4108,Chêne Hervé,Corps-Nuds,47.98189700,-1.58846100,,,0,,2,,
4-4662,4662,Chêne Lierru,Cintré,48.10702300,-1.89488600,,,0,,2,,
4-4670,4670,Chêne Vert,Cintré,48.10497000,-1.87262900,,,0,,1,,
4-4672,4672,Chêne Vert,Cintré,48.10503400,-1.87237100,,,0,,1,,
4-2306,2306,Cicé Blossac,Bruz,48.03362300,-1.76596100,,,0,,1,,
4-1210,1210,Cimetière de l'Est,Rennes,48.10431000,-1.64971000,,,0,,1,,
4-1246,1246,Cimetière de l'Est,Rennes,48.10435300,-1.64928000,,,0,,1,,
4-1436,1436,Cimetière de l'Est,Rennes,48.10361200,-1.64980200,,,0,,1,,
4-1471,1471,Cimetière de l'Est,Rennes,48.10376300,-1.64949200,,,0,,1,,
4-1042,1042,Cimetière Nord,Rennes,48.12393900,-1.68172400,,,0,,1,,
4-1100,1100,Cimetière Nord,Rennes,48.12455700,-1.68171600,,,0,,1,,
4-2811,2811,Cité des Jardins,Saint-Grégoire,48.15137800,-1.69129500,,,0,,1,,
4-2820,2820,Cité des Jardins,Saint-Grégoire,48.15147500,-1.69131800,,,0,,1,,
4-1019,1019,Cité Judiciaire,Rennes,48.10508400,-1.68473100,,,0,,1,,
4-1021,1021,Cité Judiciaire,Rennes,48.10511200,-1.68429900,,,0,,1,,
4-1402,1402,Cité Judiciaire,Rennes,48.10564700,-1.68518800,,,0,,1,,
4-1587,1587,Cité Judiciaire,Rennes,48.10542900,-1.68522300,,,0,,1,,
4-4306,4306,Clairefontaine,L'Hermitage,48.12316300,-1.80617200,,,0,,1,,
4-4307,4307,Clairefontaine,L'Hermitage,48.12351600,-1.80744800,,,0,,1,,
4-4451,4451,Clairville,Clayes,48.18099100,-1.85052400,,,0,,2,,
4-4453,4453,Clayes Centre,Clayes,48.17601900,-1.85261000,,,0,,1,,
4-4457,4457,Clayes Centre,Clayes,48.17628800,-1.85246000,,,0,,1,,
4-1445,1445,Clemenceau,Rennes,48.09314700,-1.67466800,,,0,,1,,
4-1461,1461,Clemenceau,Rennes,48.09365900,-1.67376200,,,0,,1,,
4-1664,1664,Clemenceau,Rennes,48.09435500,-1.67444200,,,0,,1,,
4-5010,5010,Clemenceau,Rennes,48.09356500,-1.67447700,,,0,4-15010,1,,
4-5025,5025,Clemenceau,Rennes,48.09365300,-1.67439400,,,0,4-15010,1,,
4-1385,1385,Cleunay,Rennes,48.10084600,-1.70705900,,,0,,1,,
4-1395,1395,Cleunay,Rennes,48.10094500,-1.70696000,,,0,,1,,
4-5062,5062,Cleunay,Rennes,48.10081500,-1.70641700,,,0,4-15062,1,,
4-5067,5067,Cleunay,Rennes,48.10117800,-1.70642600,,,0,4-15062,1,,
4-1545,1545,Cleunay Stade,Rennes,48.10154900,-1.70842200,,,0,,1,,
4-1546,1546,Cleunay Stade,Rennes,48.10161400,-1.70882300,,,0,,2,,
4-1389,1389,Clinique La Sagesse,Rennes,48.10124900,-1.71181000,,,0,,1,,
4-1391,1391,Clinique La Sagesse,Rennes,48.10105600,-1.71179900,,,0,,1,,
4-4671,4671,Clos de la Vallée,Cintré,48.10387300,-1.87896300,,,0,,1,,
4-3715,3715,Clos des Cerisiers,Saint-Gilles,48.15374500,-1.83403400,,,0,,1,,
4-3724,3724,Clos des Cerisiers,Saint-Gilles,48.15384300,-1.83404200,,,0,,1,,
4-3603,3603,Clos des Tilleuls,Parthenay-de-Bretagne,48.19163800,-1.82712100,,,0,,2,,
4-3614,3614,Clos des Tilleuls,Parthenay-de-Bretagne,48.19182200,-1.82784000,,,0,,1,,
4-2547,2547,Clos Joury,Le Rheu,48.10033200,-1.80159900,,,0,,1,,
4-2548,2548,Clos Joury,Le Rheu,48.10034500,-1.80141000,,,0,,1,,
4-3233,3233,Clos Vezins,Orgères,47.97818800,-1.65977500,,,0,,2,,
4-3256,3256,Clos Vezins,Orgères,47.97809000,-1.65988800,,,0,,2,,
4-1596,1596,Clotilde Vautier,Rennes,48.12586100,-1.66846200,,,0,,2,,
4-2311,2311,Coeur de Campus,Bruz,48.04724900,-1.74195500,,,0,,1,,
4-2317,2317,Coeur de Campus,Bruz,48.04742700,-1.74210300,,,0,,1,,
4-1570,1570,Coeur de Courrouze,Rennes,48.09818100,-1.69916100,,,0,,1,,
4-1571,1571,Coeur de Courrouze,Rennes,48.09829000,-1.69938900,,,0,,1,,
4-1499,1499,Colin,Rennes,48.11630000,-1.71602900,,,0,,1,,
4-1503,1503,Colin,Rennes,48.11613300,-1.71592400,,,0,,1,,
4-2534,2534,Collège Brassens,Le Rheu,48.09894800,-1.80030500,,,0,,2,,
4-2202,2202,Collège Jean Moulin,Saint-Jacques-de-la-Lande,48.07739500,-1.71572500,,,0,,1,,
4-2215,2215,Collège Jean Moulin,Saint-Jacques-de-la-Lande,48.07690900,-1.71592100,,,0,,1,,
4-2915,2915,Collège Pôle Sud,Chartres-de-Bretagne,48.04140100,-1.69846800,,,0,,1,,
4-2921,2921,Collège Pôle Sud,Chartres-de-Bretagne,48.04129600,-1.69821700,,,0,,1,,
4-2926,2926,Collège Pôle Sud,Chartres-de-Bretagne,48.04172200,-1.69607300,,,0,,1,,
4-2942,2942,Collège Pôle Sud,Chartres-de-Bretagne,48.04203200,-1.69620700,,,0,,1,,
4-1569,1569,Collège Rosa Parks,Rennes,48.12254100,-1.71644500,,,0,,2,,
4-3246,3246,Collège Récipon,Orgères,48.00238600,-1.66889100,,,0,,2,,
4-4379,4379,Collège Saint-Paul,Saint-Erblon,48.01794600,-1.66045600,,,0,,1,,
4-4381,4381,Collège Saint-Paul,Saint-Erblon,48.01802600,-1.66127900,,,0,,1,,
4-3881,3881,Collège St-Yves,Mordelles,48.07356600,-1.85171200,,,0,,2,,
4-1018,1018,Colombier,Rennes,48.10591100,-1.68221400,,,0,,1,,
4-1022,1022,Colombier,Rennes,48.10590000,-1.68169600,,,0,,1,,
4-5060,5060,Colombier,Rennes,48.10588000,-1.68231300,,,0,4-15060,1,,
4-5069,5069,Colombier,Rennes,48.10592600,-1.68184400,,,0,4-15060,1,,
4-1444,1444,Combes,Rennes,48.09362200,-1.66964000,,,0,,1,,
4-1462,1462,Combes,Rennes,48.09347800,-1.67004500,,,0,,1,,
4-2208,2208,Commeurec,Saint-Jacques-de-la-Lande,48.09580200,-1.69452800,,,0,,2,,
4-2209,2209,Commeurec,Saint-Jacques-de-la-Lande,48.09571600,-1.69431300,,,0,,2,,
4-1255,1255,Condate,Rennes,48.13447700,-1.67309700,,,0,,1,,
4-1287,1287,Condate,Rennes,48.13500600,-1.67278100,,,0,,1,,
4-4077,4077,Confortland,La Chapelle-des-Fougeretz,48.18882200,-1.72725100,,,0,,2,,
4-4078,4078,Confortland,La Chapelle-des-Fougeretz,48.18859100,-1.72737700,,,0,,2,,
4-2928,2928,Constant Mérel,Chartres-de-Bretagne,48.03142900,-1.70875500,,,0,,1,,
4-2930,2930,Constant Mérel,Chartres-de-Bretagne,48.03124700,-1.70924800,,,0,,1,,
4-2376,2376,Corbières,Bruz,48.03521300,-1.75735800,,,0,,1,,
4-2377,2377,Corbières,Bruz,48.03503000,-1.75737500,,,0,,1,,
4-2043,2043,Cormier,Cesson-Sévigné,48.12435400,-1.61847800,,,0,,1,,
4-2048,2048,Cormier,Cesson-Sévigné,48.12446600,-1.61761800,,,0,,1,,
4-2913,2913,Cornouaille,Chartres-de-Bretagne,48.03461100,-1.69941000,,,0,,1,,
4-2923,2923,Cornouaille,Chartres-de-Bretagne,48.03473500,-1.69989400,,,0,,1,,
4-4112,4112,Corps-Nuds Gare,Corps-Nuds,47.98530200,-1.57602700,,,0,,1,,
4-4104,4104,Corps-Nuds Mairie,Corps-Nuds,47.97939300,-1.58783400,,,0,,1,,
4-4109,4109,Corps-Nuds Mairie,Corps-Nuds,47.97901000,-1.58789300,,,0,,1,,
4-3210,3210,Coteau,Orgères,47.99500000,-1.67069400,,,0,,1,,
4-3219,3219,Coteau,Orgères,47.99496800,-1.67098200,,,0,,2,,
4-4759,4759,Couais,Laillé,47.94486700,-1.72857300,,,0,,2,,
4-4508,4508,Coualeuc,Gévezé,48.22448200,-1.80078500,,,0,,1,,
4-4509,4509,Coualeuc,Gévezé,48.22464500,-1.80044900,,,0,,1,,
4-1450,1450,Coubertin,Rennes,48.08669000,-1.68845300,,,0,,1,,
4-1456,1456,Coubertin,Rennes,48.08654100,-1.68745100,,,0,,1,,
4-1661,1661,Coubertin,Rennes,48.08652500,-1.68692300,,,0,,2,,
4-1668,1668,Coubertin,Rennes,48.08662900,-1.68931400,,,0,,2,,
4-2423,2423,Cour Neuve,Betton,48.17541900,-1.62292800,,,0,,2,,
4-2428,2428,Cour Neuve,Betton,48.17556200,-1.62279900,,,0,,2,,
4-2771,2771,Cours d'A Haut,Noyal-Châtillon-sur-Seiche,48.05492600,-1.69416400,,,0,,2,,
4-2772,2772,Cours d'A Haut,Noyal-Châtillon-sur-Seiche,48.05495500,-1.69408300,,,0,,2,,
4-1412,1412,Cours Kennedy,Rennes,48.12136200,-1.70776700,,,0,,1,,
4-1424,1424,Cours Kennedy,Rennes,48.12123800,-1.70795000,,,0,,1,,
4-3504,3504,Courtines,Montgermont,48.15722600,-1.71444700,,,0,,1,,
4-3511,3511,Courtines,Montgermont,48.15737300,-1.71458800,,,0,,1,,
4-2901,2901,Croix aux Potiers,Chartres-de-Bretagne,48.04673300,-1.71063300,,,0,,1,,
4-2902,2902,Croix aux Potiers,Chartres-de-Bretagne,48.04789300,-1.71354300,,,0,,1,,
4-2906,2906,Croix aux Potiers,Chartres-de-Bretagne,48.04590600,-1.71008600,,,0,,1,,
4-2907,2907,Croix aux Potiers,Chartres-de-Bretagne,48.04565900,-1.71049800,,,0,,1,,
4-4201,4201,Croix Blanche,Chavagne,48.05192500,-1.79768200,,,0,,1,,
4-4212,4212,Croix Blanche,Chavagne,48.05270700,-1.79755600,,,0,,2,,
4-2729,2729,Croix de Pierre,Noyal-Châtillon-sur-Seiche,48.04697200,-1.66467800,,,0,,1,,
4-2730,2730,Croix de Pierre,Noyal-Châtillon-sur-Seiche,48.04623900,-1.66479400,,,0,,1,,
4-4356,4356,Croix du Pigeonnet,Saint-Erblon,48.01716300,-1.66458700,,,0,,1,,
4-4357,4357,Croix du Pigeonnet,Saint-Erblon,48.01698300,-1.66472200,,,0,,1,,
4-4358,4358,Croix Faucheux,Saint-Erblon,48.01773200,-1.64936500,,,0,,1,,
4-4361,4361,Croix Faucheux,Saint-Erblon,48.01769100,-1.64947400,,,0,,1,,
4-2711,2711,Croix Fleurie,Noyal-Châtillon-sur-Seiche,48.05665800,-1.66372100,,,0,,2,,
4-2718,2718,Croix Fleurie,Noyal-Châtillon-sur-Seiche,48.05598700,-1.66426200,,,0,,2,,
4-3856,3856,Croix Ignon,Mordelles,48.08131800,-1.82661600,,,0,,2,,
4-3861,3861,Croix Ignon,Mordelles,48.08139200,-1.82702700,,,0,,2,,
4-2308,2308,Croix Madame,Bruz,48.04141300,-1.75442400,,,0,,1,,
4-2320,2320,Croix Madame,Bruz,48.04039300,-1.75518400,,,0,,2,,
4-2601,2601,Croix Malinge,Vern-sur-Seiche,48.03850800,-1.60250400,,,0,,1,,
4-2635,2635,Croix Malinge,Vern-sur-Seiche,48.03849900,-1.60214500,,,0,,1,,
4-2640,2640,Croix Malinge,Vern-sur-Seiche,48.03840500,-1.60232000,,,0,,1,,
4-2604,2604,Croix Rouge,Vern-sur-Seiche,48.04955800,-1.60615300,,,0,,2,,
4-2618,2618,Croix Rouge,Vern-sur-Seiche,48.04911300,-1.60602600,,,0,,2,,
4-1213,1213,Croix Saint-Hélier,Rennes,48.10290200,-1.66140300,,,0,,1,,
4-1243,1243,Croix Saint-Hélier,Rennes,48.10251500,-1.66109400,,,0,,1,,
4-4452,4452,Croix Simon,Clayes,48.18182400,-1.85351700,,,0,,1,,
4-4458,4458,Croix Simon,Clayes,48.18234500,-1.85303200,,,0,,1,,
4-2329,2329,Croix Vaisserelle,Bruz,48.00815100,-1.77409600,,,0,,1,,
4-2346,2346,Croix Vaisserelle,Bruz,48.00825600,-1.77386100,,,0,,1,,
4-2227,2227,Croix Verte,Saint-Jacques-de-la-Lande,48.08941500,-1.69785500,,,0,,1,,
4-2229,2229,Croix Verte,Saint-Jacques-de-la-Lande,48.08943200,-1.69794700,,,0,,1,,
4-3951,3951,Cropy,Saint-Sulpice-la-Forêt,48.22521200,-1.57040900,,,0,,1,,
4-1300,1300,Cucillé - Frac,Rennes,48.12859500,-1.69888400,,,0,,1,,
4-1304,1304,Cucillé - Frac,Rennes,48.12850100,-1.69871200,,,0,,1,,
4-3016,3016,Cucé,Chantepie,48.09351400,-1.60756200,,,0,,1,,
4-3322,3322,Curien,Thorigné-Fouillard,48.14932200,-1.57770300,,,0,,1,,
4-3323,3323,Curien,Thorigné-Fouillard,48.14929400,-1.57682900,,,0,,1,,
4-2733,2733,Côteaux,Noyal-Châtillon-sur-Seiche,48.03419700,-1.66340200,,,0,,1,,
4-2734,2734,Côteaux,Noyal-Châtillon-sur-Seiche,48.03443600,-1.66342100,,,0,,1,,
4-2775,2775,Côteaux,Noyal-Châtillon-sur-Seiche,48.03486400,-1.66417100,,,0,,1,,
4-1383,1383,Dargent,Rennes,48.10358900,-1.70004800,,,0,,1,,
4-1397,1397,Dargent,Rennes,48.10359800,-1.70036900,,,0,,1,,
4-4155,4155,Destiers,Brécé,48.10764300,-1.48616500,,,0,,1,,
4-4158,4158,Destiers,Brécé,48.10753500,-1.48611800,,,0,,1,,
4-3002,3002,Deux Ruisseaux,Chantepie,48.08576500,-1.61404700,,,0,,1,,
4-3013,3013,Deux Ruisseaux,Chantepie,48.08581300,-1.61471700,,,0,,1,,
4-2368,2368,DGA-MI,Bruz,47.98728600,-1.74261200,,,0,,2,,
4-2379,2379,DGA-MI Nord,Bruz,47.99435200,-1.74019900,,,0,,1,,
4-2809,2809,Discalceat,Saint-Grégoire,48.15433900,-1.68672300,,,0,,1,,
4-2822,2822,Discalceat,Saint-Grégoire,48.15451900,-1.68663700,,,0,,1,,
4-3103,3103,Docteur Léon,Pacé,48.14923200,-1.78898900,,,0,,2,,
4-3121,3121,Docteur Léon,Pacé,48.14938100,-1.78901200,,,0,,2,,
4-1319,1319,Domaine,Rennes,48.09700200,-1.64165300,,,0,,1,,
4-1324,1324,Domaine,Rennes,48.09768000,-1.64244700,,,0,,1,,
4-1040,1040,Donelière,Rennes,48.12987400,-1.68430900,,,0,,1,,
4-1102,1102,Donelière,Rennes,48.13116100,-1.68449700,,,0,,1,,
4-1004,1004,Donzelot,Rennes,48.12524400,-1.64267600,,,0,,1,,
4-1036,1036,Donzelot,Rennes,48.12555600,-1.64198000,,,0,,1,,
4-4364,4364,Douazel,Saint-Erblon,48.02060200,-1.63193000,,,0,,2,,
4-4367,4367,Douazel,Saint-Erblon,48.02042500,-1.63201900,,,0,,0,,
4-2326,2326,Doublé,Bruz,48.03404000,-1.72385600,,,0,,2,,
4-2328,2328,Doublé,Bruz,48.03487400,-1.72482700,,,0,,1,,
4-2359,2359,Doublé,Bruz,48.03579700,-1.72322300,,,0,,1,,
4-3108,3108,Duchesse Anne,Pacé,48.15085900,-1.77198900,,,0,,1,,
4-3116,3116,Duchesse Anne,Pacé,48.15094700,-1.77187700,,,0,,1,,
4-1652,1652,Dulac,Rennes,48.13284800,-1.69573000,,,0,,1,,
4-1653,1653,Dulac,Rennes,48.13328700,-1.69535000,,,0,,1,,
4-1676,1676,Dulac,Rennes,48.13356000,-1.69598800,,,0,,1,,
4-1114,1114,Durafour,Rennes,48.11452100,-1.65801700,,,0,,1,,
4-1149,1149,Durafour,Rennes,48.11424800,-1.65866600,,,0,,2,,
4-1758,1758,Durafour Leclerc,Rennes,48.11470600,-1.65552700,,,0,,0,,
4-1759,1759,Durafour Leclerc,Rennes,48.11461000,-1.65522300,,,0,,0,,
4-3506,3506,Décoparc,Montgermont,48.15298700,-1.70658100,,,0,,1,,
4-3516,3516,Décoparc,Montgermont,48.15438700,-1.70721600,,,0,,1,,
4-2148,2148,Dézerseul,Cesson-Sévigné,48.12260700,-1.59173700,,,0,,1,,
4-2149,2149,Dézerseul,Cesson-Sévigné,48.12283900,-1.59147700,,,0,,1,,
4-3405,3405,Eclosel,Nouvoitou,48.04458000,-1.56162100,,,0,,2,,
4-3406,3406,Eclosel,Nouvoitou,48.04437800,-1.56147000,,,0,,2,,
4-3017,3017,EDEFS,Chantepie,48.09250400,-1.61292000,,,0,,2,,
4-3023,3023,EDEFS,Chantepie,48.09259600,-1.61294500,,,0,,2,,
4-2851,2851,Edonia,Saint-Grégoire,48.14808900,-1.69686200,,,0,,1,,
4-2852,2852,Edonia,Saint-Grégoire,48.14791800,-1.69692600,,,0,,1,,
4-2859,2859,Edonia,Saint-Grégoire,48.14870500,-1.69735100,,,0,,1,,
4-2541,2541,Egalité,Le Rheu,48.09442200,-1.79593100,,,0,,1,,
4-2542,2542,Egalité,Le Rheu,48.09444700,-1.79572700,,,0,,1,,
4-2410,2410,Enseigne Abbaye,Betton,48.17102400,-1.64207300,,,0,,1,,
4-2413,2413,Enseigne Abbaye,Betton,48.17111600,-1.64182100,,,0,,1,,
4-2332,2332,Epalet,Bruz,48.01949900,-1.74496500,,,0,,1,,
4-2343,2343,Epalet,Bruz,48.01956800,-1.74554400,,,0,,1,,
4-3424,3424,Epron,Nouvoitou,48.01670300,-1.53970700,,,0,,2,,
4-2037,2037,Erbonière,Cesson-Sévigné,48.10603800,-1.62565200,,,0,,1,,
4-2102,2102,Erbonière,Cesson-Sévigné,48.10617400,-1.62533000,,,0,,1,,
4-4302,4302,ESAT La Hautière,L'Hermitage,48.11882700,-1.82267200,,,0,,2,,
4-4319,4319,ESAT La Hautière,L'Hermitage,48.11899400,-1.82242900,,,0,,2,,
4-4711,4711,Estuaires,Laillé,47.97539400,-1.69140300,,,0,,2,,
4-4712,4712,Estuaires,Laillé,47.97481600,-1.69136000,,,0,,2,,
4-3701,3701,Etang de la Motte,Saint-Gilles,48.15396400,-1.87146300,,,0,,2,,
4-3737,3737,Etang de la Motte,Saint-Gilles,48.15399900,-1.87137200,,,0,,2,,
4-2312,2312,Etangs,Bruz,48.04942400,-1.74045400,,,0,,1,,
4-2316,2316,Etangs,Bruz,48.04937600,-1.74072700,,,0,,1,,
4-1547,1547,Etangs d'Apigné,Rennes,48.09198300,-1.73781100,,,0,,1,,
4-1548,1548,Etangs d'Apigné,Rennes,48.09212200,-1.73732700,,,0,,1,,
4-1376,1376,Europe,Rennes,48.12857900,-1.65719200,,,0,,1,,
4-1405,1405,Europe,Rennes,48.12841600,-1.65706100,,,0,,1,,
4-2944,2944,Ferme des Peupliers,Chartres-de-Bretagne,48.02917500,-1.70796300,,,0,,1,,
4-2945,2945,Ferme des Peupliers,Chartres-de-Bretagne,48.02897600,-1.70794200,,,0,,1,,
4-4503,4503,Flume,Gévezé,48.21870400,-1.78405500,,,0,,1,,
4-4504,4504,Flume,Gévezé,48.21819000,-1.78315000,,,0,,1,,
4-4602,4602,Fonderies,Chevaigné,48.21431600,-1.62881800,,,0,,1,,
4-4605,4605,Fonderies,Chevaigné,48.21439500,-1.62895800,,,0,,1,,
4-3907,3907,Fontaine Blanche,Pont-Péan,48.01635200,-1.70556500,,,0,,1,,
4-3910,3910,Fontaine Blanche,Pont-Péan,48.01699600,-1.70521100,,,0,,1,,
4-2009,2009,Fontenelle,Cesson-Sévigné,48.12358500,-1.60813400,,,0,,1,,
4-2027,2027,Fontenelle,Cesson-Sévigné,48.12345600,-1.60818300,,,0,,1,,
4-2812,2812,Forge,Saint-Grégoire,48.15085200,-1.68583400,,,0,,1,,
4-2819,2819,Forge,Saint-Grégoire,48.15149300,-1.68583900,,,0,,1,,
4-2847,2847,Forge,Saint-Grégoire,48.15181500,-1.68451800,,,0,,1,,
4-2848,2848,Forge,Saint-Grégoire,48.15190900,-1.68441300,,,0,,1,,
4-4071,4071,Forge Mallet,La Chapelle-des-Fougeretz,48.17375600,-1.75297200,,,0,,2,,
4-4072,4072,Forge Mallet,La Chapelle-des-Fougeretz,48.17345200,-1.75309500,,,0,,2,,
4-3201,3201,Fort Joual,Orgères,47.96981000,-1.64604100,,,0,,2,,
4-3207,3207,Fort Joual,Orgères,47.96962400,-1.64579700,,,0,,2,,
4-2034,2034,Forum,Cesson-Sévigné,48.09956900,-1.62121700,,,0,,1,,
4-2035,2035,Forum,Cesson-Sévigné,48.09967000,-1.62085700,,,0,,1,,
4-2605,2605,Fosse Gauchère,Vern-sur-Seiche,48.04941400,-1.60980900,,,0,,1,,
4-2617,2617,Fosse Gauchère,Vern-sur-Seiche,48.04948400,-1.61110600,,,0,,1,,
4-1555,1555,Fossés,Rennes,48.11330400,-1.67530600,,,0,,1,,
4-1705,1705,Fossés,Rennes,48.11325600,-1.67515500,,,0,,1,,
4-3709,3709,Fouaye,Saint-Gilles,48.15295200,-1.80922900,,,0,,2,,
4-3710,3710,Fouaye,Saint-Gilles,48.15362600,-1.81053800,,,0,,2,,
4-3501,3501,Fougerolle,Montgermont,48.15722100,-1.72330600,,,0,,2,,
4-3514,3514,Fougerolle,Montgermont,48.15708900,-1.72330800,,,0,,1,,
4-3307,3307,Fouillard,Thorigné-Fouillard,48.16041200,-1.58602100,,,0,,1,,
4-3311,3311,Fouillard,Thorigné-Fouillard,48.16061800,-1.58546100,,,0,,1,,
4-3321,3321,Fouillard,Thorigné-Fouillard,48.16045400,-1.58705900,,,0,,2,,
4-4004,4004,Foyer,Acigné,48.13395800,-1.53779100,,,0,,1,,
4-4011,4011,Foyer,Acigné,48.13387000,-1.53754600,,,0,,2,,
4-1265,1265,Foyer Rennais,Rennes,48.09980900,-1.68712300,,,0,,1,,
4-1276,1276,Foyer Rennais,Rennes,48.09971400,-1.68619000,,,0,,1,,
4-1699,1699,François Château,Rennes,48.11109100,-1.64844700,,,0,,1,,
4-1700,1700,François Château,Rennes,48.11106500,-1.64892900,,,0,,1,,
4-3767,3767,Fresnot,Vezin-le-Coquet,48.12295100,-1.75536600,,,0,,2,,
4-3773,3773,Fresnot,Vezin-le-Coquet,48.12297200,-1.75551400,,,0,,2,,
4-3202,3202,Frogerais,Orgères,47.97539900,-1.65125600,,,0,,2,,
4-3206,3206,Frogerais,Orgères,47.97538700,-1.65239200,,,0,,2,,
4-6001,6001,Frères Aubert,Romillé,48.21693400,-1.89042700,,,0,,1,,
4-6002,6002,Frères Aubert,Romillé,48.21671900,-1.89093700,,,0,,1,,
4-1127,1127,Frères Moine,Rennes,48.09304200,-1.68193200,,,0,,1,,
4-1137,1137,Frères Moine,Rennes,48.09359700,-1.68180900,,,0,,1,,
4-4320,4320,Frétillé,L'Hermitage,48.13156400,-1.82667500,,,0,,0,,
4-4321,4321,Frétillé,L'Hermitage,48.13169200,-1.82638100,,,0,,2,,
4-1267,1267,Félix Eboué,Rennes,48.08570700,-1.69390300,,,0,,1,,
4-1270,1270,Félix Eboué,Rennes,48.08581100,-1.69403900,,,0,,1,,
4-1344,1344,Galicie,Rennes,48.08770000,-1.65008800,,,0,,1,,
4-1356,1356,Galicie,Rennes,48.08745800,-1.64985300,,,0,,1,,
4-1743,1743,Galicie,Rennes,48.08795600,-1.65070700,,,0,,1,,
4-1003,1003,Gallet,Rennes,48.12736900,-1.64043300,,,0,,1,,
4-1037,1037,Gallet,Rennes,48.12780100,-1.63987100,,,0,,1,,
4-9234,9234,Gare Sud,Rennes,48.09987000,-1.67263600,,,0,,2,,
4-1122,1122,Gare Sud Féval,Rennes,48.10293200,-1.67674800,,,0,,1,,
4-1662,1662,Gare Sud Féval,Rennes,48.10284900,-1.67655700,,,0,,1,,
4-2610,2610,Garenne,Vern-sur-Seiche,48.06776800,-1.62570100,,,0,,1,,
4-2613,2613,Garenne,Vern-sur-Seiche,48.06755100,-1.62566700,,,0,,1,,
4-1056,1056,Gares,Rennes,48.10431700,-1.67220100,,,0,,1,,
4-1477,1477,Gares,Rennes,48.10406300,-1.67174000,,,0,,1,,
4-1575,1575,Gares,Rennes,48.10376800,-1.67131700,,,0,,2,,
4-1721,1721,Gares,Rennes,48.10404100,-1.67326800,,,0,,1,,
4-1722,1722,Gares,Rennes,48.10417900,-1.67257900,,,0,,1,,
4-5008,5008,Gares,Rennes,48.10377900,-1.67225200,,,0,4-15008,1,,
4-5023,5023,Gares,Rennes,48.10387500,-1.67218300,,,0,4-15008,1,,
4-5059,5059,Gares,Rennes,48.10420400,-1.67228700,,,0,4-15008,1,,
4-5070,5070,Gares,Rennes,48.10421900,-1.67189600,,,0,4-15008,1,,
4-1126,1126,Garigliano,Rennes,48.09602300,-1.68171200,,,0,,1,,
4-1138,1138,Garigliano,Rennes,48.09636300,-1.68154300,,,0,,1,,
4-2537,2537,Gaston Bardet,Le Rheu,48.10240700,-1.78735100,,,0,,1,,
4-2538,2538,Gaston Bardet,Le Rheu,48.10227100,-1.78737900,,,0,,1,,
4-2083,2083,Gaudais,Cesson-Sévigné,48.12695100,-1.61432600,,,0,,1,,
4-2156,2156,Gaudais,Cesson-Sévigné,48.12721800,-1.61410800,,,0,,1,,
4-2307,2307,Gavrinis,Bruz,48.03127500,-1.75944200,,,0,,1,,
4-2321,2321,Gavrinis,Bruz,48.03120000,-1.75959800,,,0,,1,,
4-1106,1106,Gayeulles Piscine,Rennes,48.13426400,-1.65221500,,,0,,1,,
4-1157,1157,Gayeulles Piscine,Rennes,48.13493500,-1.65195500,,,0,,1,,
4-2451,2451,Gentilhommière,Betton,48.19085000,-1.62933100,,,0,,1,,
4-2458,2458,Gentilhommière,Betton,48.19099100,-1.62898100,,,0,,1,,
4-2506,2506,Genêts,Le Rheu,48.09925100,-1.79113300,,,0,,1,,
4-2515,2515,Genêts,Le Rheu,48.09930900,-1.79076200,,,0,,1,,
4-2521,2521,Gerhoui,Le Rheu,48.09099800,-1.78681400,,,0,,1,,
4-2524,2524,Gerhoui,Le Rheu,48.09137900,-1.78572000,,,0,,1,,
4-2290,2290,Germaine Tillion,Saint-Jacques-de-la-Lande,48.09467400,-1.70597700,,,0,,1,,
4-2291,2291,Germaine Tillion,Saint-Jacques-de-la-Lande,48.09448700,-1.70615600,,,0,,1,,
4-1340,1340,Gide,Rennes,48.09199600,-1.65849800,,,0,,1,,
4-1360,1360,Gide,Rennes,48.09251800,-1.65830800,,,0,,1,,
4-4708,4708,Gingouillère,Laillé,47.98010100,-1.73083400,,,0,,1,,
4-4760,4760,Gingouillère,Laillé,47.98023300,-1.73106400,,,0,,2,,
4-1123,1123,Ginguené,Rennes,48.09918100,-1.67575600,,,0,,1,,
4-1141,1141,Ginguené,Rennes,48.09979000,-1.67574600,,,0,,1,,
4-1068,1068,Gohier,Rennes,48.09206700,-1.63647100,,,0,,1,,
4-1074,1074,Gohier,Rennes,48.09182700,-1.63627400,,,0,,1,,
4-1492,1492,Grand Quartier,Rennes,48.13378400,-1.69386000,,,0,,1,,
4-2801,2801,Grand Quartier,Saint-Grégoire,48.13581800,-1.69315800,,,0,,1,,
4-2826,2826,Grand Quartier,Saint-Grégoire,48.13560100,-1.69292600,,,0,,1,,
4-2830,2830,Grand Quartier,Saint-Grégoire,48.13437600,-1.69447100,,,0,,1,,
4-2854,2854,Grand Quartier,Saint-Grégoire,48.13462800,-1.69370500,,,0,,1,,
4-3857,3857,Grande Fontaine,Mordelles,48.08395400,-1.81356800,,,0,,2,,
4-3860,3860,Grande Fontaine,Mordelles,48.08367100,-1.81582000,,,0,,2,,
4-3855,3855,Gretay,Mordelles,48.07766800,-1.83742200,,,0,,1,,
4-3862,3862,Gretay,Mordelles,48.07783600,-1.83737700,,,0,,1,,
4-4758,4758,Gripay,Laillé,47.94704000,-1.72635900,,,0,,2,,
4-4205,4205,Grippay,Chavagne,48.05781800,-1.77625400,,,0,,1,,
4-4208,4208,Grippay,Chavagne,48.05776200,-1.77645000,,,0,,1,,
4-4254,4254,Grippière,La Chapelle-Thouarault,48.12128500,-1.83764500,,,0,,1,,
4-4255,4255,Grippière,La Chapelle-Thouarault,48.12143000,-1.83765000,,,0,,2,,
4-1260,1260,Gros-Chêne,Rennes,48.12560500,-1.66625000,,,0,,1,,
4-1282,1282,Gros-Chêne,Rennes,48.12627800,-1.66548900,,,0,,1,,
4-1708,1708,Gros-Chêne,Rennes,48.12556700,-1.66483200,,,0,,1,,
4-1709,1709,Gros-Chêne,Rennes,48.12520000,-1.66354000,,,0,,1,,
4-5055,5055,Gros-Chêne,Rennes,48.12506900,-1.66449200,,,0,4-15055,1,,
4-5074,5074,Gros-Chêne,Rennes,48.12511300,-1.66444500,,,0,4-15055,1,,
4-3211,3211,Groupe Scolaire,Orgères,47.99727300,-1.66843100,,,0,,1,,
4-3218,3218,Groupe Scolaire,Orgères,47.99721100,-1.66871700,,,0,,1,,
4-3407,3407,Grée Barel,Nouvoitou,48.04235900,-1.54975400,,,0,,2,,
4-1293,1293,Guilloux,Rennes,48.11000100,-1.69867900,,,0,,1,,
4-1311,1311,Guilloux,Rennes,48.10957000,-1.69831300,,,0,,1,,
4-1218,1218,Guilloux Lorient,Rennes,48.10909900,-1.69799700,,,0,,1,,
4-1238,1238,Guilloux Lorient,Rennes,48.10868700,-1.69873500,,,0,,1,,
4-2725,2725,Guyomerais,Noyal-Châtillon-sur-Seiche,48.03961500,-1.67686600,,,0,,1,,
4-2726,2726,Guyomerais,Noyal-Châtillon-sur-Seiche,48.03966900,-1.67670000,,,0,,1,,
4-1010,1010,Guéhenno,Rennes,48.11924100,-1.66769300,,,0,,1,,
4-1030,1030,Guéhenno,Rennes,48.11957200,-1.66662900,,,0,,1,,
4-1386,1386,Guérinais,Rennes,48.09892200,-1.70548800,,,0,,1,,
4-1394,1394,Guérinais,Rennes,48.09904300,-1.70551300,,,0,,1,,
4-1221,1221,Géniaux,Rennes,48.10887100,-1.71076600,,,0,,1,,
4-1235,1235,Géniaux,Rennes,48.10889800,-1.70965800,,,0,,1,,
4-1418,1418,Géniaux,Rennes,48.10910400,-1.71016200,,,0,,1,,
4-3001,3001,Gériatrie,Chantepie,48.08504700,-1.61038100,,,0,,1,,
4-3032,3032,Gériatrie,Chantepie,48.08522900,-1.61074700,,,0,,1,,
4-4532,4532,Gévezé Clairville,Gévezé,48.22264300,-1.78452700,,,0,,2,,
4-4533,4533,Gévezé Clairville,Gévezé,48.22245300,-1.78454600,,,0,,2,,
4-4502,4502,Gévezé Mairie,Gévezé,48.22098600,-1.78872300,,,0,,1,,
4-4505,4505,Gévezé Mairie,Gévezé,48.22102700,-1.78820000,,,0,,1,,
4-3754,3754,Haie de Terre,Vezin-le-Coquet,48.12091000,-1.77246600,,,0,,2,,
4-3765,3765,Haie de Terre,Vezin-le-Coquet,48.12102300,-1.77175700,,,0,,2,,
4-2275,2275,Haie des Cognets,Saint-Jacques-de-la-Lande,48.08177100,-1.73440800,,,0,,2,,
4-2276,2276,Haie des Cognets,Saint-Jacques-de-la-Lande,48.08200900,-1.73367200,,,0,,1,,
4-2611,2611,Hallerais,Vern-sur-Seiche,48.07241600,-1.62870900,,,0,,1,,
4-2612,2612,Hallerais,Vern-sur-Seiche,48.07228700,-1.62875400,,,0,,1,,
4-3011,3011,Hallouvry,Chantepie,48.09038100,-1.61534600,,,0,,1,,
4-3022,3022,Hallouvry,Chantepie,48.09104100,-1.61528300,,,0,,1,,
4-4768,4768,Hamonais,Laillé,47.97347000,-1.69100400,,,0,,2,,
4-4769,4769,Hamonais,Laillé,47.97346600,-1.69086700,,,0,,2,,
4-2239,2239,Haut Bois,Saint-Jacques-de-la-Lande,48.07783800,-1.71244500,,,0,,2,,
4-2245,2245,Haut Bois,Saint-Jacques-de-la-Lande,48.07763300,-1.71271600,,,0,,1,,
4-2038,2038,Haut Grippé,Cesson-Sévigné,48.11494100,-1.59087400,,,0,,1,,
4-2104,2104,Haut Grippé,Cesson-Sévigné,48.11500900,-1.58987300,,,0,,1,,
4-2303,2303,Haut Launay,Bruz,48.02469600,-1.75738600,,,0,,1,,
4-2324,2324,Haut Launay,Bruz,48.02459600,-1.75708800,,,0,,1,,
4-2525,2525,Haut Plessis,Le Rheu,48.07854700,-1.77136100,,,0,,2,,
4-2530,2530,Haut Plessis,Le Rheu,48.07876300,-1.77212500,,,0,,2,,
4-1071,1071,Haut Sancé,Rennes,48.09622500,-1.63689900,,,0,,1,,
4-1633,1633,Haut Sancé,Rennes,48.09665500,-1.63652700,,,0,,1,,
4-1636,1636,Haut Sancé,Rennes,48.09593300,-1.63715600,,,0,,1,,
4-2813,2813,Haut Trait,Saint-Grégoire,48.14743700,-1.68616200,,,0,,1,,
4-2818,2818,Haut Trait,Saint-Grégoire,48.14694600,-1.68610400,,,0,,1,,
4-2607,2607,Haute Abbaye,Vern-sur-Seiche,48.05261500,-1.61383600,,,0,,1,,
4-2616,2616,Haute Abbaye,Vern-sur-Seiche,48.05258700,-1.61407200,,,0,,1,,
4-3728,3728,Haute Fresnais,Saint-Gilles,48.16219400,-1.87215500,,,0,,2,,
4-3142,3142,Haute Rabine,Pacé,48.16790300,-1.78736800,,,0,,2,,
4-3143,3143,Haute Rabine,Pacé,48.16832200,-1.78739500,,,0,,2,,
4-4301,4301,Hautière,L'Hermitage,48.12292400,-1.82163300,,,0,,2,,
4-4311,4311,Hautière,L'Hermitage,48.12295000,-1.82085000,,,0,,1,,
4-2645,2645,Hauts de Gaudon,Vern-sur-Seiche,48.04128200,-1.59209200,,,0,,1,,
4-3257,3257,Haye Longue,Orgères,48.00503700,-1.66565300,,,0,,1,,
4-3258,3258,Haye Longue,Orgères,48.00520100,-1.66555100,,,0,,1,,
4-2407,2407,Haye Renaud Gare,Betton,48.18021000,-1.63493600,,,0,,1,,
4-2416,2416,Haye Renaud Gare,Betton,48.18019800,-1.63470800,,,0,,1,,
4-1447,1447,Henri Fréville,Rennes,48.08721000,-1.67507500,,,0,,1,,
4-1459,1459,Henri Fréville,Rennes,48.08807900,-1.67427400,,,0,,1,,
4-1509,1509,Henri Fréville,Rennes,48.08784300,-1.67456400,,,0,,1,,
4-1510,1510,Henri Fréville,Rennes,48.08782100,-1.67442900,,,0,,1,,
4-1534,1534,Henri Fréville,Rennes,48.08858900,-1.67439900,,,0,,1,,
4-1564,1564,Henri Fréville,Rennes,48.08815400,-1.67441500,,,0,,1,,
4-1647,1647,Henri Fréville,Rennes,48.08732400,-1.67444500,,,0,,1,,
4-1659,1659,Henri Fréville,Rennes,48.08675200,-1.67550100,,,0,,2,,
4-5011,5011,Henri Fréville,Rennes,48.08757700,-1.67485900,,,0,4-15011,1,,
4-5026,5026,Henri Fréville,Rennes,48.08767300,-1.67477700,,,0,4-15011,1,,
4-2714,2714,Hil-Bintinais,Noyal-Châtillon-sur-Seiche,48.07722200,-1.66106100,,,0,,1,,
4-2715,2715,Hil-Bintinais,Noyal-Châtillon-sur-Seiche,48.07859800,-1.66122800,,,0,,1,,
4-2831,2831,Holywell,Saint-Grégoire,48.15353600,-1.67871700,,,0,,1,,
4-2832,2832,Holywell,Saint-Grégoire,48.15463500,-1.67876300,,,0,,1,,
4-2735,2735,Horizon,Noyal-Châtillon-sur-Seiche,48.04171100,-1.66366200,,,0,,2,,
4-2759,2759,Horizon,Noyal-Châtillon-sur-Seiche,48.04167900,-1.66341600,,,0,,2,,
4-1049,1049,Horizons,Rennes,48.11163200,-1.68937100,,,0,,1,,
4-1093,1093,Horizons,Rennes,48.11175700,-1.68965300,,,0,,1,,
4-2409,2409,Housset,Betton,48.17233200,-1.63744500,,,0,,1,,
4-2414,2414,Housset,Betton,48.17268500,-1.63728400,,,0,,1,,
4-1258,1258,Houx Cité U,Rennes,48.13078800,-1.66395300,,,0,,1,,
4-1284,1284,Houx Cité U,Rennes,48.13109100,-1.66439700,,,0,,1,,
4-4102,4102,Huberdières,Corps-Nuds,47.98239300,-1.58081700,,,0,,2,,
4-4111,4111,Huberdières,Corps-Nuds,47.98256700,-1.58027800,,,0,,2,,
4-2015,2015,Hublais,Cesson-Sévigné,48.11425300,-1.61631400,,,0,,1,,
4-2021,2021,Hublais,Cesson-Sévigné,48.11416800,-1.61375400,,,0,,1,,
4-4520,4520,Huchetais,Gévezé,48.23928800,-1.79212900,,,0,,2,,
4-4521,4521,Huchetais,Gévezé,48.23933900,-1.79211400,,,0,,2,,
4-1410,1410,Hélias,Rennes,48.13651200,-1.66248300,,,0,,1,,
4-1427,1427,Hélias,Rennes,48.13640400,-1.66334800,,,0,,1,,
4-1105,1105,Héronière,Rennes,48.13550000,-1.65571100,,,0,,1,,
4-1158,1158,Héronière,Rennes,48.13560500,-1.65612600,,,0,,1,,
4-1346,1346,Hôpital Sud,Rennes,48.08472400,-1.65521100,,,0,,1,,
4-1466,1466,Hôpital Sud,Rennes,48.08451600,-1.65557200,,,0,,1,,
4-1104,1104,Hôtel de Région,Rennes,48.13474500,-1.65857200,,,0,,1,,
4-1159,1159,Hôtel de Région,Rennes,48.13435800,-1.65878400,,,0,,1,,
4-1373,1373,Hôtel de Région,Rennes,48.13524800,-1.65936000,,,0,,1,,
4-1428,1428,Hôtel de Région,Rennes,48.13452200,-1.65862500,,,0,,1,,
4-1027,1027,Hôtel Dieu,Rennes,48.11716300,-1.67735100,,,0,,1,,
4-3732,3732,Ile des Bois,Saint-Gilles,48.14933000,-1.83902400,,,0,,1,,
4-2773,2773,Ise,Noyal-Châtillon-sur-Seiche,48.03213500,-1.66134800,,,0,,1,,
4-2774,2774,Ise,Noyal-Châtillon-sur-Seiche,48.03232300,-1.66132300,,,0,,1,,
4-1646,1646,Italie,Rennes,48.08663200,-1.66883400,,,0,,1,,
4-1658,1658,Italie,Rennes,48.08650000,-1.66737900,,,0,,1,,
4-5012,5012,Italie,Rennes,48.08652400,-1.66764600,,,0,4-15012,1,,
4-5027,5027,Italie,Rennes,48.08659800,-1.66774100,,,0,4-15012,1,,
4-1291,1291,IUT,Rennes,48.12512400,-1.63315000,,,0,,1,,
4-1314,1314,IUT,Rennes,48.12510500,-1.63293900,,,0,,1,,
4-4064,4064,Izé,La Chapelle-des-Fougeretz,48.17284200,-1.72340900,,,0,,2,,
4-2432,2432,J. Sébastien Bach,Betton,48.18627100,-1.63335600,,,0,,1,,
4-2434,2434,J. Sébastien Bach,Betton,48.18644100,-1.63309200,,,0,,1,,
4-5001,5001,J.F. Kennedy,Rennes,48.12129500,-1.71094300,,,0,4-15001,1,,
4-1124,1124,Jacques Cartier,Rennes,48.09739600,-1.67548900,,,0,,1,,
4-1140,1140,Jacques Cartier,Rennes,48.09742100,-1.67441600,,,0,,1,,
4-1333,1333,Jacques Cartier,Rennes,48.09782400,-1.67516500,,,0,,1,,
4-1651,1651,Jacques Cartier,Rennes,48.09720200,-1.67519700,,,0,,2,,
4-5009,5009,Jacques Cartier,Rennes,48.09756600,-1.67550800,,,0,4-15009,1,,
4-5024,5024,Jacques Cartier,Rennes,48.09760500,-1.67541900,,,0,4-15009,1,,
4-2701,2701,Janais,Noyal-Châtillon-sur-Seiche,48.05907500,-1.70098800,,,0,,2,,
4-2704,2704,Janais,Noyal-Châtillon-sur-Seiche,48.05927900,-1.70130000,,,0,,2,,
4-3836,3836,Jardin du Soleil,Bourgbarré,47.99661000,-1.62193400,,,0,,1,,
4-3837,3837,Jardin du Soleil,Bourgbarré,47.99644500,-1.62200600,,,0,,1,,
4-1225,1225,Jardin Moderne,Rennes,48.10190000,-1.72823300,,,0,,1,,
4-1230,1230,Jardin Moderne,Rennes,48.10175100,-1.72843500,,,0,,1,,
4-2263,2263,Jean Jaurès,Saint-Jacques-de-la-Lande,48.08251800,-1.71231300,,,0,,1,,
4-2264,2264,Jean Jaurès,Saint-Jacques-de-la-Lande,48.08282100,-1.71305100,,,0,,1,,
4-2204,2204,Jean Marin,Saint-Jacques-de-la-Lande,48.08255700,-1.71525500,,,0,,1,,
4-2213,2213,Jean Marin,Saint-Jacques-de-la-Lande,48.08249100,-1.71545300,,,0,,1,,
4-2273,2273,Jean Pont,Saint-Jacques-de-la-Lande,48.09224100,-1.69769100,,,0,,2,,
4-2274,2274,Jean Pont,Saint-Jacques-de-la-Lande,48.09206900,-1.69812200,,,0,,2,,
4-2833,2833,Jean-Paul II,Saint-Grégoire,48.16014000,-1.67721700,,,0,,1,,
4-2834,2834,Jean-Paul II,Saint-Grégoire,48.15996100,-1.67710200,,,0,,1,,
4-2841,2841,Jean-Paul II,Saint-Grégoire,48.16048000,-1.67677400,,,0,,2,,
4-1113,1113,Jeanne d'Arc,Rennes,48.11636900,-1.65568100,,,0,,1,,
4-1150,1150,Jeanne d'Arc,Rennes,48.11658800,-1.65539000,,,0,,1,,
4-1429,1429,Joliot-Curie,Rennes,48.12762800,-1.65089800,,,0,,1,,
4-1734,1734,Joliot-Curie,Rennes,48.12776100,-1.65114900,,,0,,1,,
4-1737,1737,Joliot-Curie,Rennes,48.12649500,-1.65192900,,,0,,1,,
4-1738,1738,Joliot-Curie,Rennes,48.12607600,-1.65199300,,,0,,1,,
4-1710,1710,Joliot-Curie - Chateaubriand,Rennes,48.12457600,-1.65150600,,,0,,1,,
4-1711,1711,Joliot-Curie - Chateaubriand,Rennes,48.12367700,-1.65152700,,,0,,1,,
4-5053,5053,Joliot-Curie - Chateaubriand,Rennes,48.12429200,-1.65147400,,,0,4-15053,1,,
4-5076,5076,Joliot-Curie - Chateaubriand,Rennes,48.12381400,-1.65149700,,,0,4-15053,1,,
4-1011,1011,Jules Ferry,Rennes,48.11835600,-1.67048100,,,0,,1,,
4-1029,1029,Jules Ferry,Rennes,48.11823000,-1.67108900,,,0,,1,,
4-5056,5056,Jules Ferry,Rennes,48.11866300,-1.67091800,,,0,4-15056,1,,
4-5073,5073,Jules Ferry,Rennes,48.11865600,-1.67060900,,,0,4-15056,1,,
4-1588,1588,Jules Maniez,Rennes,48.09801900,-1.70369400,,,0,,1,,
4-1589,1589,Jules Maniez,Rennes,48.09793500,-1.70398500,,,0,,1,,
4-2288,2288,Jules Vallès,Saint-Jacques-de-la-Lande,48.06339300,-1.72793600,,,0,,1,,
4-2289,2289,Jules Vallès,Saint-Jacques-de-la-Lande,48.06347000,-1.72737500,,,0,,1,,
4-1590,1590,Jules Verne,Rennes,48.09889900,-1.69354000,,,0,,1,,
4-1591,1591,Jules Verne,Rennes,48.09891000,-1.69368000,,,0,,1,,
4-3306,3306,Juteauderies,Thorigné-Fouillard,48.16417600,-1.57926500,,,0,,1,,
4-3312,3312,Juteauderies,Thorigné-Fouillard,48.16293400,-1.57918200,,,0,,1,,
4-1568,1568,Kennedy Guyenne,Rennes,48.12102800,-1.71357100,,,0,,1,,
4-2309,2309,Ker Lann,Bruz,48.04462200,-1.74650200,,,0,,1,,
4-2319,2319,Ker Lann,Bruz,48.04453400,-1.74631900,,,0,,1,,
4-2855,2855,Kerfleury,Saint-Grégoire,48.13827700,-1.67188500,,,0,,1,,
4-2858,2858,Kerfleury,Saint-Grégoire,48.13844500,-1.67202200,,,0,,1,,
4-2856,2856,Kerguelen,Saint-Grégoire,48.15137000,-1.69711000,,,0,,1,,
4-2857,2857,Kerguelen,Saint-Grégoire,48.15119900,-1.69727500,,,0,,1,,
4-1220,1220,Kerviler,Rennes,48.10916200,-1.70636600,,,0,,1,,
4-1236,1236,Kerviler,Rennes,48.10876000,-1.70565600,,,0,,1,,
4-4737,4737,L'Ardrais,Laillé,47.98579200,-1.70528100,,,0,,2,,
4-4738,4738,L'Ardrais,Laillé,47.98577000,-1.70518400,,,0,,2,,
4-2504,2504,L'Autre Lieu,Le Rheu,48.09897300,-1.79682100,,,0,,1,,
4-2517,2517,L'Autre Lieu,Le Rheu,48.09936700,-1.79673300,,,0,,1,,
4-4304,4304,L'Hermitage Centre,L'Hermitage,48.12557800,-1.81596200,,,0,,1,,
4-4322,4322,L'Hermitage Centre,L'Hermitage,48.12544700,-1.81549100,,,0,,1,,
4-4303,4303,L'Hermitage Gare,L'Hermitage,48.12387500,-1.81772100,,,0,,1,,
4-4310,4310,L'Hermitage Gare,L'Hermitage,48.12375000,-1.81799200,,,0,,1,,
4-3245,3245,L'Hermitière Village,Orgères,47.96434900,-1.68171800,,,0,,2,,
4-3251,3251,L'Hermitière Village,Orgères,47.96404600,-1.68109900,,,0,,2,,
4-4766,4766,L'Oie,Laillé,47.94022500,-1.71669900,,,0,,0,,
4-4767,4767,L'Oie,Laillé,47.94028500,-1.71690100,,,0,,0,,
4-3425,3425,L'Ourmais,Nouvoitou,48.02870000,-1.55132100,,,0,,2,,
4-3261,3261,La Barre,Orgères,47.98999100,-1.65261400,,,0,,2,,
4-3262,3262,La Barre,Orgères,47.98989300,-1.65248900,,,0,,2,,
4-3804,3804,La Basse Erable,Bourgbarré,47.99518300,-1.62423400,,,0,,1,,
4-3807,3807,La Basse Erable,Bourgbarré,47.99509400,-1.62373500,,,0,,1,,
4-2837,2837,La Brosse,Saint-Grégoire,48.17698000,-1.72196200,,,0,,1,,
4-4062,4062,La Brosse,La Chapelle-des-Fougeretz,48.17674900,-1.72209600,,,0,,1,,
4-4725,4725,La Corbinais,Laillé,47.95672300,-1.73780200,,,0,,2,,
4-2008,2008,La Coulée,Cesson-Sévigné,48.12362800,-1.60438400,,,0,,1,,
4-2028,2028,La Coulée,Cesson-Sévigné,48.12346300,-1.60409100,,,0,,1,,
4-4459,4459,La Cour aux Pages,Clayes,48.17817300,-1.85283400,,,0,,1,,
4-4460,4460,La Cour aux Pages,Clayes,48.17801900,-1.85280100,,,0,,1,,
4-2286,2286,La Courrouze,Saint-Jacques-de-la-Lande,48.09685800,-1.69774500,,,0,,1,,
4-2287,2287,La Courrouze,Saint-Jacques-de-la-Lande,48.09664000,-1.69780200,,,0,,1,,
4-5063,5063,La Courrouze,Saint-Jacques-de-la-Lande,48.09631100,-1.69831000,,,0,4-15063,1,,
4-5066,5066,La Courrouze,Saint-Jacques-de-la-Lande,48.09673000,-1.69855200,,,0,4-15063,1,,
4-1017,1017,La Criée,Rennes,48.10841500,-1.68021300,,,0,,2,,
4-1023,1023,La Criée,Rennes,48.10806600,-1.68004800,,,0,,1,,
4-4856,4856,La Croisade,La Chapelle-Chaussée,48.26510800,-1.83973400,,,0,,0,,
4-4857,4857,La Croisade,La Chapelle-Chaussée,48.26571000,-1.84044500,,,0,,0,,
4-4727,4727,La Feutelais,Laillé,47.96897500,-1.70850700,,,0,,2,,
4-4728,4728,La Feutelais,Laillé,47.96892200,-1.70861800,,,0,,2,,
4-3177,3177,La Foucherais,Pacé,48.17965400,-1.77514300,,,0,,2,,
4-3178,3178,La Foucherais,Pacé,48.17954500,-1.77501000,,,0,,2,,
4-3822,3822,La Fretais,Bourgbarré,47.99016500,-1.62350500,,,0,,2,,
4-3823,3823,La Fretais,Bourgbarré,47.99017700,-1.62364200,,,0,,2,,
4-4729,4729,La Gicquelais,Laillé,47.93963100,-1.71057800,,,0,,2,,
4-4730,4730,La Gicquelais,Laillé,47.93955300,-1.71061900,,,0,,2,,
4-1671,1671,La Harpe,Rennes,48.12566700,-1.71033900,,,0,,1,,
4-1681,1681,La Harpe,Rennes,48.12541800,-1.71037700,,,0,,1,,
4-3877,3877,La Haute Barre,Mordelles,48.07997700,-1.86596800,,,0,,2,,
4-2461,2461,La Haute Plesse,Betton,48.18011300,-1.62774900,,,0,,1,,
4-3702,3702,La Houdinais,Saint-Gilles,48.15163400,-1.85383400,,,0,,2,,
4-3703,3703,La Houdinais,Saint-Gilles,48.15175700,-1.85355600,,,0,,2,,
4-3179,3179,La Hyptais,Pacé,48.17034100,-1.76727700,,,0,,2,,
4-3180,3180,La Hyptais,Pacé,48.17036200,-1.76716800,,,0,,2,,
4-4410,4410,La Lande Basse,Le Verger,48.06295300,-1.93004100,,,0,,2,,
4-3803,3803,La Motte,Bourgbarré,47.99604500,-1.61745100,,,0,,1,,
4-3808,3808,La Motte,Bourgbarré,47.99594300,-1.61746500,,,0,,1,,
4-3604,3604,La Noë,Parthenay-de-Bretagne,48.19128100,-1.82462900,,,0,,1,,
4-3613,3613,La Noë,Parthenay-de-Bretagne,48.19129700,-1.82430000,,,0,,1,,
4-3042,3042,La Planche,Chantepie,48.07777600,-1.60556700,,,0,,2,,
4-2803,2803,La Plesse,Saint-Grégoire,48.13756600,-1.68736600,,,0,,1,,
4-2815,2815,La Plesse,Saint-Grégoire,48.13708100,-1.68639100,,,0,,1,,
4-2816,2816,La Plesse,Saint-Grégoire,48.13823300,-1.68633600,,,0,,1,,
4-3420,3420,La Porte,Nouvoitou,48.03850300,-1.54758200,,,0,,1,,
4-3421,3421,La Porte,Nouvoitou,48.03878000,-1.54638700,,,0,,1,,
4-2603,2603,La Poste,Vern-sur-Seiche,48.04473500,-1.60395900,,,0,,1,,
4-2619,2619,La Poste,Vern-sur-Seiche,48.04456600,-1.60390700,,,0,,1,,
4-1065,1065,La Poterie,Rennes,48.08762100,-1.64393000,,,0,,1,,
4-1077,1077,La Poterie,Rennes,48.08741300,-1.64343600,,,0,,1,,
4-1343,1343,La Poterie,Rennes,48.08764300,-1.64596600,,,0,,1,,
4-1468,1468,La Poterie,Rennes,48.08738300,-1.64536700,,,0,,1,,
4-1511,1511,La Poterie,Rennes,48.08757200,-1.64346600,,,0,,1,,
4-1533,1533,La Poterie,Rennes,48.08763700,-1.64347900,,,0,,1,,
4-1650,1650,La Poterie,Rennes,48.08748100,-1.64313700,,,0,,1,,
4-1686,1686,La Poterie,Rennes,48.08872100,-1.64478200,,,0,,2,,
4-1746,1746,La Poterie,Rennes,48.08739500,-1.64248900,,,0,,1,,
4-1747,1747,La Poterie,Rennes,48.08735300,-1.64264200,,,0,,1,,
4-5015,5015,La Poterie,Rennes,48.08745000,-1.64451300,,,0,4-15015,1,,
4-5030,5030,La Poterie,Rennes,48.08753100,-1.64463300,,,0,4-15015,1,,
4-3882,3882,La Prie,Mordelles,48.09530600,-1.85203400,,,0,,0,,
4-3883,3883,La Prie,Mordelles,48.09519400,-1.85222100,,,0,,0,,
4-3601,3601,La Renardière,Parthenay-de-Bretagne,48.18347100,-1.83569400,,,0,,2,,
4-3616,3616,La Renardière,Parthenay-de-Bretagne,48.18337900,-1.83608700,,,0,,2,,
4-3235,3235,La Rochelle,Orgères,47.98482800,-1.65309000,,,0,,2,,
4-3247,3247,La Rochelle,Orgères,47.98471200,-1.65297600,,,0,,2,,
4-1188,1188,La Salle,Rennes,48.11489800,-1.70195900,,,0,,1,,
4-1192,1192,La Salle,Rennes,48.11499900,-1.70142300,,,0,,1,,
4-3418,3418,La Tertronais,Nouvoitou,48.02190100,-1.54724500,,,0,,2,,
4-1047,1047,La Touche,Rennes,48.11612000,-1.69128800,,,0,,1,,
4-1095,1095,La Touche,Rennes,48.11650500,-1.69074400,,,0,,1,,
4-4764,4764,Laillé Collège,Laillé,47.98212300,-1.71484600,,,0,,0,,
4-4704,4704,Laillé Eglise,Laillé,47.97808400,-1.72046600,,,0,,1,,
4-4705,4705,Laillé Eglise,Laillé,47.97800000,-1.71969700,,,0,,1,,
4-4010,4010,Lande,Acigné,48.13463200,-1.54214200,,,0,,1,,
4-4018,4018,Lande,Acigné,48.13402100,-1.54044700,,,0,,1,,
4-2761,2761,Lande de Pinçon,Noyal-Châtillon-sur-Seiche,48.04483000,-1.67353800,,,0,,2,,
4-2762,2762,Lande de Pinçon,Noyal-Châtillon-sur-Seiche,48.04468800,-1.67357200,,,0,,2,,
4-4529,4529,Lande de Villé,Gévezé,48.23377000,-1.78771600,,,0,,2,,
4-4530,4530,Lande de Villé,Gévezé,48.23354000,-1.78778600,,,0,,2,,
4-4553,4553,Lande du Jardin,Saint-Armel,48.01463000,-1.59830400,,,0,,1,,
4-4554,4554,Lande du Jardin,Saint-Armel,48.01478800,-1.59838300,,,0,,1,,
4-2313,2313,Lande du Pont,Bruz,48.05267900,-1.73829000,,,0,,1,,
4-2315,2315,Lande du Pont,Bruz,48.05219700,-1.73948800,,,0,,1,,
4-3958,3958,Lande Saint-Denis,Saint-Sulpice-la-Forêt,48.20317600,-1.59500000,,,0,,2,,
4-3964,3964,Lande Saint-Denis,Saint-Sulpice-la-Forêt,48.20375900,-1.59476800,,,0,,2,,
4-3301,3301,Landelles,Thorigné-Fouillard,48.15518800,-1.57310700,,,0,,1,,
4-3327,3327,Landelles,Thorigné-Fouillard,48.15402300,-1.57335100,,,0,,1,,
4-3035,3035,Landes,Chantepie,48.09245700,-1.61816900,,,0,,1,,
4-3036,3036,Landes,Chantepie,48.09272200,-1.61795900,,,0,,1,,
4-1341,1341,Landrel,Rennes,48.09122200,-1.65457800,,,0,,1,,
4-1359,1359,Landrel,Rennes,48.09147900,-1.65559900,,,0,,1,,
4-1318,1318,Landry,Rennes,48.09913000,-1.64608400,,,0,,1,,
4-1325,1325,Landry,Rennes,48.09947200,-1.64668200,,,0,,1,,
4-4900,4900,Langan Bourg,Langan,48.24523500,-1.85370100,,,0,,1,,
4-4901,4901,Langan Bourg,Langan,48.24541100,-1.85408700,,,0,,1,,
4-1339,1339,Langevin,Rennes,48.09467600,-1.65862900,,,0,,1,,
4-1361,1361,Langevin,Rennes,48.09422200,-1.65816300,,,0,,1,,
4-3402,3402,Langlois,Nouvoitou,48.04094900,-1.54960200,,,0,,1,,
4-3410,3410,Langlois,Nouvoitou,48.04007600,-1.55019700,,,0,,1,,
4-1191,1191,Languedoc,Rennes,48.11547400,-1.70448900,,,0,,1,,
4-3816,3816,Launay Garnier,Saint-Armel,48.00082400,-1.59445500,,,0,,1,,
4-3817,3817,Launay Garnier,Bourgbarré,48.00091200,-1.59470100,,,0,,1,,
4-2763,2763,Launay Hyon,Noyal-Châtillon-sur-Seiche,48.06716700,-1.65925700,,,0,,2,,
4-2764,2764,Launay Hyon,Noyal-Châtillon-sur-Seiche,48.06724700,-1.65926600,,,0,,2,,
4-2337,2337,Lavoisier,Bruz,48.03298700,-1.73302700,,,0,,1,,
4-2338,2338,Lavoisier,Bruz,48.03324400,-1.73309700,,,0,,1,,
4-1057,1057,Laënnec,Rennes,48.10472400,-1.66730900,,,0,,1,,
4-1085,1085,Laënnec,Rennes,48.10469400,-1.66547200,,,0,,1,,
4-1107,1107,Le Blizz,Rennes,48.13087000,-1.65212100,,,0,,1,,
4-1156,1156,Le Blizz,Rennes,48.13178200,-1.65190500,,,0,,1,,
4-1440,1440,Le Blosne,Rennes,48.08635200,-1.65395500,,,0,,1,,
4-1467,1467,Le Blosne,Rennes,48.08711200,-1.65379100,,,0,,1,,
4-5014,5014,Le Blosne,Rennes,48.08770200,-1.65429400,,,0,4-15014,1,,
4-5029,5029,Le Blosne,Rennes,48.08776500,-1.65443900,,,0,4-15014,1,,
4-4739,4739,Le Cleux,Laillé,47.96817800,-1.72418300,,,0,,2,,
4-1438,1438,Le Dantec,Rennes,48.09928100,-1.65277000,,,0,,1,,
4-1469,1469,Le Dantec,Rennes,48.09927600,-1.65248500,,,0,,1,,
4-3423,3423,Le Gobigné,Nouvoitou,48.02619200,-1.53563900,,,0,,2,,
4-3920,3920,Le Louvrel,Pont-Péan,48.01968500,-1.69441400,,,0,,2,,
4-3921,3921,Le Louvrel,Pont-Péan,48.01986700,-1.69408300,,,0,,2,,
4-1216,1216,Le Mail,Rennes,48.10922600,-1.69018400,,,0,,1,,
4-1240,1240,Le Mail,Rennes,48.10925700,-1.68968700,,,0,,1,,
4-4740,4740,Le Nid,Laillé,47.98519000,-1.71886200,,,0,,2,,
4-3111,3111,Le Ponant,Pacé,48.14275600,-1.77010100,,,0,,1,,
4-3113,3113,Le Ponant,Pacé,48.14340100,-1.77038600,,,0,,1,,
4-2249,2249,Le Pâtis,Saint-Jacques-de-la-Lande,48.08508700,-1.72746900,,,0,,1,,
4-2254,2254,Le Pâtis,Saint-Jacques-de-la-Lande,48.08514500,-1.72770600,,,0,,1,,
4-3606,3606,Le Reuvre,Parthenay-de-Bretagne,48.18640500,-1.81664100,,,0,,1,,
4-3611,3611,Le Reuvre,Parthenay-de-Bretagne,48.18641300,-1.81645100,,,0,,1,,
4-4906,4906,Le Rhé,Langan,48.24926000,-1.86779000,,,0,,0,,
4-3824,3824,Le Rocher,Bourgbarré,48.00140700,-1.60862800,,,0,,2,,
4-3733,3733,Le Roheu,Saint-Gilles,48.15137100,-1.86874500,,,0,,2,,
4-4401,4401,Le Verger Eglise,Le Verger,48.06991800,-1.93242700,,,0,,1,,
4-4408,4408,Le Verger Eglise,Le Verger,48.07003000,-1.93229000,,,0,,1,,
4-1233,1233,Lemaistre,Rennes,48.10702100,-1.72162000,,,0,,1,,
4-1539,1539,Lemaistre,Rennes,48.10716700,-1.72500000,,,0,,1,,
4-4312,4312,Lemordant,L'Hermitage,48.12729900,-1.81238700,,,0,,2,,
4-4327,4327,Lemordant,L'Hermitage,48.12733500,-1.81286900,,,0,,2,,
4-1338,1338,Leray,Rennes,48.09502000,-1.66162200,,,0,,1,,
4-1362,1362,Leray,Rennes,48.09501400,-1.66146400,,,0,,1,,
4-1735,1735,Leray,Rennes,48.09572000,-1.66212700,,,0,,1,,
4-1736,1736,Leray,Rennes,48.09566200,-1.66193600,,,0,,1,,
4-1417,1417,Les Arts,Rennes,48.11117100,-1.71286400,,,0,,1,,
4-1419,1419,Les Arts,Rennes,48.11143300,-1.71338200,,,0,,1,,
4-4668,4668,Les Bordes,Cintré,48.11265000,-1.89213900,,,0,,2,,
4-3826,3826,Les Cruaux,Bourgbarré,48.00414300,-1.60278400,,,0,,2,,
4-1375,1375,Les Gayeulles,Rennes,48.12995500,-1.65651100,,,0,,1,,
4-1406,1406,Les Gayeulles,Rennes,48.12968400,-1.65643200,,,0,,1,,
4-1723,1723,Les Gayeulles,Rennes,48.12949300,-1.65686900,,,0,,1,,
4-1724,1724,Les Gayeulles,Rennes,48.12967300,-1.65671900,,,0,,1,,
4-1725,1725,Les Gayeulles,Rennes,48.12993200,-1.65687600,,,0,,1,,
4-5054,5054,Les Gayeulles,Rennes,48.12940700,-1.65786800,,,0,4-15054,1,,
4-5075,5075,Les Gayeulles,Rennes,48.12936900,-1.65761800,,,0,4-15054,1,,
4-2042,2042,Les Lacs,Cesson-Sévigné,48.12464400,-1.61310200,,,0,,1,,
4-2049,2049,Les Lacs,Cesson-Sévigné,48.12443600,-1.61409700,,,0,,1,,
4-2150,2150,Les Lacs,Cesson-Sévigné,48.12519800,-1.61305400,,,0,,1,,
4-2151,2151,Les Lacs,Cesson-Sévigné,48.12536200,-1.61300100,,,0,,1,,
4-1050,1050,Les Lices,Rennes,48.11164700,-1.68699900,,,0,,1,,
4-1092,1092,Les Lices,Rennes,48.11175900,-1.68621600,,,0,,1,,
4-2508,2508,Les Pins,Le Rheu,48.09683500,-1.77559000,,,0,,1,,
4-2513,2513,Les Pins,Le Rheu,48.09701200,-1.77605100,,,0,,1,,
4-1262,1262,Les Prairies,Rennes,48.12147100,-1.67097000,,,0,,1,,
4-1280,1280,Les Prairies,Rennes,48.12140400,-1.67082500,,,0,,1,,
4-1603,1603,Les Préales,Rennes,48.11325000,-1.64128700,,,0,,1,,
4-1604,1604,Les Préales,Rennes,48.11355100,-1.64094700,,,0,,1,,
4-4742,4742,Les Vallées,Laillé,47.97427700,-1.74307000,,,0,,2,,
4-4359,4359,Leuzières,Saint-Erblon,48.02153700,-1.65350200,,,0,,1,,
4-4360,4360,Leuzières,Saint-Erblon,48.02154700,-1.65371600,,,0,,1,,
4-3212,3212,Levant,Orgères,48.00073700,-1.66675800,,,0,,1,,
4-3217,3217,Levant,Orgères,48.00047100,-1.66715500,,,0,,1,,
4-1088,1088,Liberté,Rennes,48.10738100,-1.67495200,,,0,,2,,
4-2207,2207,Lilas,Saint-Jacques-de-la-Lande,48.09383500,-1.70038900,,,0,,1,,
4-2210,2210,Lilas,Saint-Jacques-de-la-Lande,48.09435700,-1.69845700,,,0,,1,,
4-2549,2549,Lindon,Le Rheu,48.10576300,-1.79393400,,,0,,1,,
4-3756,3756,Lion d'Or,Vezin-le-Coquet,48.11900400,-1.76092600,,,0,,1,,
4-3763,3763,Lion d'Or,Vezin-le-Coquet,48.11923900,-1.76127300,,,0,,1,,
4-3007,3007,Loges,Chantepie,48.09031600,-1.62371300,,,0,,1,,
4-3008,3008,Loges,Chantepie,48.09030700,-1.62404200,,,0,,1,,
4-3325,3325,Longrais,Thorigné-Fouillard,48.15164800,-1.58340600,,,0,,1,,
4-3326,3326,Longrais,Thorigné-Fouillard,48.15152200,-1.58322300,,,0,,1,,
4-1001,1001,Longs Champs,Rennes,48.12907700,-1.63253000,,,0,,1,,
4-1039,1039,Longs Champs,Rennes,48.12899800,-1.63238000,,,0,,1,,
4-1617,1617,Longs Champs Est,Rennes,48.12913700,-1.63016800,,,0,,1,,
4-2121,2121,Longs Champs Est,Cesson-Sévigné,48.13036800,-1.63131400,,,0,,1,,
4-1374,1374,Longs Prés,Rennes,48.13316200,-1.65696000,,,0,,1,,
4-1407,1407,Longs Prés,Rennes,48.13312900,-1.65662600,,,0,,1,,
4-2747,2747,Lotissement du Moulin,Noyal-Châtillon-sur-Seiche,48.04199700,-1.65641900,,,0,,2,,
4-2765,2765,Lotissement du Moulin,Noyal-Châtillon-sur-Seiche,48.04189900,-1.65631400,,,0,,2,,
4-2709,2709,Louis Texier,Noyal-Châtillon-sur-Seiche,48.04407400,-1.66116800,,,0,,1,,
4-2720,2720,Louis Texier,Noyal-Châtillon-sur-Seiche,48.04437800,-1.66082900,,,0,,2,,
4-1565,1565,Lycée Basch,Rennes,48.12516600,-1.69238500,,,0,,2,,
4-1566,1566,Lycée Basch,Rennes,48.12530400,-1.69243100,,,0,,1,,
4-1269,1269,Lycée Bréquigny,Rennes,48.08408100,-1.69204300,,,0,,1,,
4-1451,1451,Lycée Bréquigny,Rennes,48.08685700,-1.69126200,,,0,,1,,
4-1455,1455,Lycée Bréquigny,Rennes,48.08670200,-1.69104300,,,0,,1,,
4-1064,1064,Lycée Descartes,Rennes,48.09028100,-1.64501800,,,0,,1,,
4-1078,1078,Lycée Descartes,Rennes,48.08997200,-1.64466000,,,0,,1,,
4-1328,1328,Lycée Mendès France,Rennes,48.13296400,-1.68524800,,,0,,1,,
4-1371,1371,Lycée Mendès France,Rennes,48.13331600,-1.68511400,,,0,,1,,
4-1578,1578,Lycée Mendès France,Rennes,48.13335000,-1.68390000,,,0,,1,,
4-1640,1640,Lycée Mendès France,Rennes,48.13366400,-1.68455800,,,0,,2,,
4-2502,2502,Lycée Monod,Le Rheu,48.10052600,-1.80659600,,,0,,1,,
4-2519,2519,Lycée Monod,Le Rheu,48.10089700,-1.80690400,,,0,,1,,
4-2052,2052,Lycée Ozanam,Cesson-Sévigné,48.13114900,-1.59703700,,,0,,1,,
4-2091,2091,Lycée Sévigné,Cesson-Sévigné,48.11907200,-1.59762200,,,0,,1,,
4-1302,1302,Léonard,Rennes,48.13149300,-1.69178500,,,0,,1,,
4-1537,1537,Léonard,Rennes,48.13159600,-1.69166000,,,0,,1,,
4-1543,1543,Léonard,Rennes,48.13134100,-1.69188900,,,0,,1,,
4-1714,1714,Mabilais,Rennes,48.10514200,-1.69190100,,,0,,1,,
4-1715,1715,Mabilais,Rennes,48.10503200,-1.69192900,,,0,,1,,
4-5061,5061,Mabilais,Rennes,48.10508000,-1.69292300,,,0,4-15061,1,,
4-5068,5068,Mabilais,Rennes,48.10503600,-1.69241200,,,0,4-15061,1,,
4-2251,2251,Maffeys,Saint-Jacques-de-la-Lande,48.08677900,-1.71024900,,,0,,1,,
4-2252,2252,Maffeys,Saint-Jacques-de-la-Lande,48.08672900,-1.70999000,,,0,,1,,
4-2522,2522,Mahomat,Le Rheu,48.09398100,-1.77394100,,,0,,1,,
4-2523,2523,Mahomat,Le Rheu,48.09410000,-1.77409800,,,0,,1,,
4-2712,2712,Mail Lancé,Noyal-Châtillon-sur-Seiche,48.06399600,-1.66387000,,,0,,2,,
4-2717,2717,Mail Lancé,Noyal-Châtillon-sur-Seiche,48.06363700,-1.66395200,,,0,,2,,
4-2630,2630,Maillardière,Vern-sur-Seiche,48.04505200,-1.59893100,,,0,,1,,
4-2633,2633,Maillardière,Vern-sur-Seiche,48.04511400,-1.59861000,,,0,,1,,
4-4152,4152,Mainguère,Brécé,48.10899800,-1.47848000,,,0,,1,,
4-4161,4161,Mainguère,Brécé,48.10906400,-1.47826400,,,0,,1,,
4-2827,2827,Maison Blanche,Saint-Grégoire,48.14899600,-1.65660100,,,0,,1,,
4-2829,2829,Maison Blanche,Saint-Grégoire,48.14937800,-1.65641100,,,0,,1,,
4-2865,2865,Maison Blanche,Saint-Grégoire,48.14727000,-1.65739500,,,0,,1,,
4-2866,2866,Maison Blanche,Saint-Grégoire,48.14714900,-1.65714300,,,0,,1,,
4-2011,2011,Maison d'Accueil,Cesson-Sévigné,48.12110800,-1.60998000,,,0,,1,,
4-2025,2025,Maison d'Accueil,Cesson-Sévigné,48.12125500,-1.60988400,,,0,,1,,
4-3717,3717,Maison Neuve,Saint-Gilles,48.15398500,-1.83760000,,,0,,1,,
4-3723,3723,Maison Neuve,Saint-Gilles,48.15406000,-1.83781500,,,0,,1,,
4-1381,1381,Malakoff,Rennes,48.10512800,-1.69646800,,,0,,2,,
4-1399,1399,Malakoff,Rennes,48.10501500,-1.69546000,,,0,,2,,
4-1674,1674,Malraux,Rennes,48.13375400,-1.70274500,,,0,,1,,
4-1678,1678,Malraux,Rennes,48.13365700,-1.70306400,,,0,,1,,
4-2206,2206,Maltière,Saint-Jacques-de-la-Lande,48.08763900,-1.70686100,,,0,,1,,
4-2211,2211,Maltière,Saint-Jacques-de-la-Lande,48.08664600,-1.70782400,,,0,,1,,
4-2225,2225,Maltière,Saint-Jacques-de-la-Lande,48.08681100,-1.70563000,,,0,,2,,
4-1675,1675,Mandela,Rennes,48.13488800,-1.69840900,,,0,,1,,
4-1677,1677,Mandela,Rennes,48.13480700,-1.69881500,,,0,,1,,
4-3768,3768,Marais,Vezin-le-Coquet,48.10421900,-1.73589400,,,0,,1,,
4-3769,3769,Marais,Vezin-le-Coquet,48.10416900,-1.73603600,,,0,,1,,
4-1294,1294,Marbeuf,Rennes,48.11130500,-1.70130100,,,0,,1,,
4-1310,1310,Marbeuf,Rennes,48.11129200,-1.70083700,,,0,,1,,
4-2350,2350,Mare de la Salle,Bruz,48.02931700,-1.71906100,,,0,,2,,
4-2351,2351,Mare de la Salle,Bruz,48.02918600,-1.71972000,,,0,,2,,
4-4206,4206,Mare Doux,Chavagne,48.06325700,-1.77231200,,,0,,2,,
4-4207,4207,Mare Doux,Chavagne,48.06342900,-1.77244900,,,0,,2,,
4-2010,2010,Mare Pavée,Cesson-Sévigné,48.12279000,-1.61093800,,,0,,1,,
4-2026,2026,Mare Pavée,Cesson-Sévigné,48.12278200,-1.61077000,,,0,,1,,
4-2074,2074,Mare Pavée,Cesson-Sévigné,48.12354700,-1.61123900,,,0,,1,,
4-2075,2075,Mare Pavée,Cesson-Sévigné,48.12336300,-1.61130100,,,0,,1,,
4-3521,3521,Marebaudière,Montgermont,48.15050500,-1.71648300,,,0,,2,,
4-2408,2408,Marronniers,Betton,48.17615400,-1.63735900,,,0,,1,,
4-2415,2415,Marronniers,Betton,48.17686700,-1.63705500,,,0,,1,,
4-4747,4747,Martigné,Laillé,48.00164200,-1.72410000,,,0,,2,,
4-3024,3024,Martinière,Vern-sur-Seiche,48.07696000,-1.63180800,,,0,,2,,
4-3025,3025,Martinière,Chantepie,48.07674200,-1.63183600,,,0,,2,,
4-3404,3404,Menault,Nouvoitou,48.04130800,-1.54461900,,,0,,1,,
4-3409,3409,Menault,Nouvoitou,48.04136800,-1.54516700,,,0,,1,,
4-1414,1414,Merlin,Rennes,48.11641600,-1.71226500,,,0,,1,,
4-1422,1422,Merlin,Rennes,48.11626100,-1.71130900,,,0,,1,,
4-1020,1020,Mermoz,Rennes,48.09744200,-1.68956600,,,0,,1,,
4-1266,1266,Mermoz,Rennes,48.09714000,-1.68905700,,,0,,1,,
4-1275,1275,Mermoz,Rennes,48.09742200,-1.68857300,,,0,,1,,
4-1573,1573,Mermoz,Rennes,48.09704500,-1.69027800,,,0,,1,,
4-6005,6005,Mettrie Templiers,Romillé,48.21241400,-1.89082700,,,0,,1,,
4-6006,6006,Mettrie Templiers,Romillé,48.21222400,-1.89082200,,,0,,1,,
4-1730,1730,Metz,Rennes,48.11747700,-1.65942100,,,0,,1,,
4-1731,1731,Metz,Rennes,48.11760800,-1.65934300,,,0,,1,,
4-1009,1009,Metz Volney,Rennes,48.12163500,-1.66318600,,,0,,1,,
4-1031,1031,Metz Volney,Rennes,48.12198700,-1.66218500,,,0,,1,,
4-1729,1729,Metz Volney,Rennes,48.12157300,-1.66266000,,,0,,1,,
4-1672,1672,Meynier,Rennes,48.12801400,-1.70791700,,,0,,1,,
4-1680,1680,Meynier,Rennes,48.12853800,-1.70814400,,,0,,1,,
4-2840,2840,MFR Rabinardières,Saint-Grégoire,48.17666400,-1.69027700,,,0,,1,,
4-4950,4950,Miniac Eglise,Miniac-sous-Bécherel,48.28471000,-1.93080600,,,0,,1,,
4-1005,1005,Mirabeau,Rennes,48.12308100,-1.64706400,,,0,,1,,
4-1035,1035,Mirabeau,Rennes,48.12367700,-1.64515800,,,0,,1,,
4-2272,2272,Mivoie,Saint-Jacques-de-la-Lande,48.07017800,-1.70307000,,,0,,1,,
4-3810,3810,Moc Souris,Bourgbarré,47.96003800,-1.63239400,,,0,,2,,
4-2526,2526,Moigné,Le Rheu,48.08042400,-1.77442400,,,0,,1,,
4-2529,2529,Moigné,Le Rheu,48.08028000,-1.77446600,,,0,,1,,
4-2706,2706,Molène,Noyal-Châtillon-sur-Seiche,48.03845500,-1.67072200,,,0,,1,,
4-2723,2723,Molène,Noyal-Châtillon-sur-Seiche,48.03835500,-1.67061600,,,0,,1,,
4-4404,4404,Monbusson,Le Verger,48.06914400,-1.94338800,,,0,,2,,
4-4407,4407,Monbusson,Le Verger,48.06941600,-1.94318800,,,0,,2,,
4-1761,1761,Monnerville,Rennes,48.10749400,-1.64948800,,,0,,0,,
4-1762,1762,Monnerville,Rennes,48.10739200,-1.64911000,,,0,,0,,
4-1066,1066,Monnet,Rennes,48.08778800,-1.63859600,,,0,,1,,
4-1076,1076,Monnet,Rennes,48.08798600,-1.63842100,,,0,,1,,
4-2059,2059,Monniais,Cesson-Sévigné,48.10930200,-1.60907300,,,0,,1,,
4-2063,2063,Monniais,Cesson-Sévigné,48.10874300,-1.60963000,,,0,,1,,
4-2143,2143,Monniais,Cesson-Sévigné,48.10952900,-1.60889500,,,0,,1,,
4-1063,1063,Monsieur Vincent,Rennes,48.09273000,-1.64749000,,,0,,1,,
4-1079,1079,Monsieur Vincent,Rennes,48.09277200,-1.64720500,,,0,,1,,
4-4075,4075,Montaigu,La Chapelle-des-Fougeretz,48.17596400,-1.75630200,,,0,,2,,
4-4076,4076,Montaigu,La Chapelle-des-Fougeretz,48.17580300,-1.75593600,,,0,,2,,
4-1388,1388,Montand,Rennes,48.09935300,-1.71121700,,,0,,1,,
4-1392,1392,Montand,Rennes,48.09987100,-1.71115400,,,0,,1,,
4-3503,3503,Montgermont Mairie,Montgermont,48.15574000,-1.71654000,,,0,,1,,
4-3512,3512,Montgermont Mairie,Montgermont,48.15564400,-1.71670800,,,0,,1,,
4-4748,4748,Montheleu,Laillé,47.95460200,-1.68621900,,,0,,2,,
4-4749,4749,Montheleu,Laillé,47.95462800,-1.68614600,,,0,,0,,
4-1253,1253,Monts d'Arrée,Rennes,48.13671100,-1.66752700,,,0,,1,,
4-1289,1289,Monts d'Arrée,Rennes,48.13653900,-1.66752700,,,0,,1,,
4-2750,2750,Monts Gaultier,Noyal-Châtillon-sur-Seiche,48.03925900,-1.68054100,,,0,,1,,
4-2751,2751,Monts Gaultier,Noyal-Châtillon-sur-Seiche,48.03933800,-1.68000200,,,0,,1,,
4-1257,1257,Morbihan,Rennes,48.13267000,-1.66759900,,,0,,1,,
4-1285,1285,Morbihan,Rennes,48.13282700,-1.66760900,,,0,,1,,
4-3852,3852,Mordelles Eglise,Mordelles,48.07195600,-1.84982900,,,0,,1,,
4-3865,3865,Mordelles Eglise,Mordelles,48.07188300,-1.85024000,,,0,,1,,
4-3854,3854,Mordelles Lilas,Mordelles,48.07580800,-1.84215300,,,0,,1,,
4-3863,3863,Mordelles Lilas,Mordelles,48.07560400,-1.84282700,,,0,,1,,
4-3853,3853,Mordelles Mairie,Mordelles,48.07371800,-1.84628200,,,0,,1,,
4-3864,3864,Mordelles Mairie,Mordelles,48.07355800,-1.84688400,,,0,,1,,
4-3851,3851,Mordelles Pâtis,Mordelles,48.07458200,-1.85372300,,,0,,1,,
4-3869,3869,Mordelles Pâtis,Mordelles,48.07392400,-1.85372000,,,0,,1,,
4-2201,2201,Morinais,Saint-Jacques-de-la-Lande,48.07548900,-1.71626400,,,0,,1,,
4-2224,2224,Morinais,Saint-Jacques-de-la-Lande,48.07507300,-1.71604000,,,0,,1,,
4-3880,3880,Morvan Lebesque,Mordelles,48.07146500,-1.84111100,,,0,,2,,
4-1654,1654,Motte Brûlon,Rennes,48.12957600,-1.67416700,,,0,,1,,
4-1655,1655,Motte Brûlon,Rennes,48.12978700,-1.67392200,,,0,,1,,
4-2631,2631,Moulin,Vern-sur-Seiche,48.04752700,-1.59856700,,,0,,2,,
4-2632,2632,Moulin,Vern-sur-Seiche,48.04806500,-1.59857700,,,0,,2,,
4-1514,1514,Moulin de Joué,Rennes,48.11332600,-1.64764800,,,0,,1,,
4-1515,1515,Moulin de Joué,Rennes,48.11363100,-1.64756900,,,0,,1,,
4-3903,3903,Mouton Blanc,Pont-Péan,48.01057300,-1.70097900,,,0,,1,,
4-3914,3914,Mouton Blanc,Pont-Péan,48.01037000,-1.70103900,,,0,,1,,
4-1212,1212,Mouézy,Rennes,48.10194900,-1.65653800,,,0,,1,,
4-1244,1244,Mouézy,Rennes,48.10221700,-1.65506300,,,0,,1,,
4-2012,2012,Muguet,Cesson-Sévigné,48.11839000,-1.60850400,,,0,,1,,
4-2024,2024,Muguet,Cesson-Sévigné,48.11844900,-1.60832200,,,0,,1,,
4-1166,1166,Musée Beaux Arts,Rennes,48.10991400,-1.67514500,,,0,,1,,
4-1169,1169,Musée Beaux Arts,Rennes,48.10984200,-1.67315000,,,0,,1,,
4-2203,2203,Médiathèque,Saint-Jacques-de-la-Lande,48.07942000,-1.71571000,,,0,,1,,
4-2214,2214,Médiathèque,Saint-Jacques-de-la-Lande,48.07986900,-1.71552600,,,0,,1,,
4-2107,2107,Ménouriais,Cesson-Sévigné,48.09965100,-1.60304600,,,0,,1,,
4-2128,2128,Ménouriais,Cesson-Sévigné,48.09976900,-1.60303700,,,0,,2,,
4-4053,4053,Métairie,La Chapelle-des-Fougeretz,48.17951000,-1.72920100,,,0,,1,,
4-4060,4060,Métairie,La Chapelle-des-Fougeretz,48.17927100,-1.72929900,,,0,,1,,
4-2054,2054,Métairies Chalotais,Cesson-Sévigné,48.12312900,-1.60197500,,,0,,1,,
4-2068,2068,Métairies Chalotais,Cesson-Sévigné,48.12314900,-1.60173000,,,0,,1,,
4-3509,3509,Métrie,Montgermont,48.15300500,-1.70887800,,,0,,1,,
4-2438,2438,Mézières,Betton,48.18499000,-1.65024000,,,0,,2,,
4-2441,2441,Mézières,Betton,48.18494700,-1.64981700,,,0,,2,,
4-1254,1254,Neruda,Rennes,48.13679600,-1.67107800,,,0,,1,,
4-1288,1288,Neruda,Rennes,48.13664100,-1.67063200,,,0,,1,,
4-2842,2842,Nobel,Saint-Grégoire,48.15811300,-1.67207400,,,0,,1,,
4-2843,2843,Nobel,Saint-Grégoire,48.15831800,-1.67216500,,,0,,1,,
4-3134,3134,Nominoë,Pacé,48.14162200,-1.77045700,,,0,,1,,
4-3135,3135,Nominoë,Pacé,48.14175500,-1.77100100,,,0,,1,,
4-1670,1670,Normandie,Rennes,48.12383000,-1.70903000,,,0,,1,,
4-1682,1682,Normandie,Rennes,48.12362800,-1.70922200,,,0,,1,,
4-1449,1449,Norvège,Rennes,48.08686500,-1.68307900,,,0,,1,,
4-1457,1457,Norvège,Rennes,48.08676500,-1.68388700,,,0,,1,,
4-2331,2331,Noë,Bruz,48.02139400,-1.75227600,,,0,,1,,
4-2344,2344,Noë,Bruz,48.02167400,-1.75231700,,,0,,1,,
4-4315,4315,Noë Biche,L'Hermitage,48.12299700,-1.80254600,,,0,,1,,
4-4316,4316,Noë Biche,L'Hermitage,48.12277800,-1.80112300,,,0,,1,,
4-2501,2501,Noë Diolé,Le Rheu,48.10243600,-1.83228900,,,0,,2,,
4-2520,2520,Noë Diolé,Le Rheu,48.10245600,-1.83096000,,,0,,2,,
4-1115,1115,Oberthur,Rennes,48.11345900,-1.66140900,,,0,,1,,
4-1148,1148,Oberthur,Rennes,48.11340500,-1.66126500,,,0,,1,,
4-3956,3956,Oliverie,Saint-Sulpice-la-Forêt,48.19792200,-1.59913700,,,0,,1,,
4-3957,3957,Oliverie,Saint-Sulpice-la-Forêt,48.19753500,-1.59924700,,,0,,2,,
4-1741,1741,Olivier de Serres,Rennes,48.12801600,-1.68691800,,,0,,0,,
4-1742,1742,Olivier de Serres,Rennes,48.12654400,-1.68631200,,,0,,0,,
4-1299,1299,Olympe de Gouges,Rennes,48.12790500,-1.70275300,,,0,,1,,
4-1305,1305,Olympe de Gouges,Rennes,48.12756500,-1.70329300,,,0,,1,,
4-2402,2402,Omblais,Betton,48.17930100,-1.65104700,,,0,,1,,
4-2421,2421,Omblais,Betton,48.17917500,-1.65123000,,,0,,1,,
4-3112,3112,Opéra,Pacé,48.14105900,-1.76729400,,,0,,1,,
4-3144,3144,Opéra,Pacé,48.14105400,-1.76627300,,,0,,1,,
4-3249,3249,Orgerblon,Orgères,48.01483700,-1.66395500,,,0,,1,,
4-3250,3250,Orgerblon,Orgères,48.01501800,-1.66384100,,,0,,1,,
4-1335,1335,Ormeaux,Rennes,48.09770500,-1.66840000,,,0,,1,,
4-1365,1365,Ormeaux,Rennes,48.09775900,-1.66924500,,,0,,1,,
4-3259,3259,Ormes Blanches,Orgères,47.99265200,-1.66298400,,,0,,1,,
4-3260,3260,Ormes Blanches,Orgères,47.99295100,-1.66289800,,,0,,1,,
4-4702,4702,Orée du Bois,Laillé,47.97550800,-1.71700600,,,0,,1,,
4-4703,4703,Orée du Bois,Laillé,47.97557900,-1.71706700,,,0,,1,,
4-3126,3126,Ouessant,Pacé,48.15725000,-1.76579500,,,0,,1,,
4-3133,3133,Ouessant,Pacé,48.15738300,-1.76566600,,,0,,1,,
4-3109,3109,Pacé Cimetière,Pacé,48.14814200,-1.76990900,,,0,,1,,
4-3115,3115,Pacé Cimetière,Pacé,48.14809900,-1.76973100,,,0,,1,,
4-3175,3175,Pacé Cimetière,Pacé,48.14759300,-1.76873100,,,0,,1,,
4-3176,3176,Pacé Cimetière,Pacé,48.14778700,-1.76849300,,,0,,1,,
4-1008,1008,Painlevé,Rennes,48.12321200,-1.66021600,,,0,,1,,
4-1032,1032,Painlevé,Rennes,48.12324200,-1.65926600,,,0,,1,,
4-1634,1634,Painlevé,Rennes,48.12368800,-1.66047500,,,0,,1,,
4-1219,1219,Papeteries,Rennes,48.10827400,-1.70374300,,,0,,1,,
4-1237,1237,Papeteries,Rennes,48.10768900,-1.70212100,,,0,,1,,
4-1673,1673,Parc Beauregard,Rennes,48.13115100,-1.70384500,,,0,,1,,
4-1679,1679,Parc Beauregard,Rennes,48.13101300,-1.70395700,,,0,,1,,
4-4351,4351,Parc d'Activités,Saint-Erblon,48.01727000,-1.66033200,,,0,,1,,
4-2911,2911,Parc de Loisirs,Chartres-de-Bretagne,48.03326800,-1.70722800,,,0,,1,,
4-2927,2927,Parc de Loisirs,Chartres-de-Bretagne,48.03316900,-1.70748400,,,0,,1,,
4-3401,3401,Parc des Sports,Nouvoitou,48.04133700,-1.55340500,,,0,,1,,
4-2236,2236,Parc Expo,Saint-Jacques-de-la-Lande,48.05999600,-1.73410100,,,0,,1,,
4-2244,2244,Parc Expo,Saint-Jacques-de-la-Lande,48.05990700,-1.73445000,,,0,,1,,
4-1108,1108,Parc Gayeulles,Rennes,48.12834400,-1.65223200,,,0,,1,,
4-1155,1155,Parc Gayeulles,Rennes,48.12914500,-1.65200100,,,0,,1,,
4-3617,3617,Parthenay Fontaine,Parthenay-de-Bretagne,48.19376200,-1.83221400,,,0,,1,,
4-3602,3602,Parthenay Mairie,Parthenay-de-Bretagne,48.19200300,-1.83120900,,,0,,1,,
4-3615,3615,Parthenay Mairie,Parthenay-de-Bretagne,48.19210400,-1.83143200,,,0,,1,,
4-2334,2334,Pasteur,Bruz,48.02383600,-1.73606300,,,0,,1,,
4-2341,2341,Pasteur,Bruz,48.02363500,-1.73627800,,,0,,1,,
4-1252,1252,Patton,Rennes,48.13878200,-1.66602000,,,0,,1,,
4-1165,1165,Paul Bert,Rennes,48.11011100,-1.67021000,,,0,,1,,
4-1170,1170,Paul Bert,Rennes,48.10999600,-1.66901800,,,0,,1,,
4-4353,4353,Paul Féval,Saint-Erblon,48.01765400,-1.65458500,,,0,,1,,
4-4354,4354,Paul Féval,Saint-Erblon,48.01765300,-1.65440100,,,0,,1,,
4-2810,2810,Paul-Emile Victor,Saint-Grégoire,48.15380800,-1.69197900,,,0,,1,,
4-2821,2821,Paul-Emile Victor,Saint-Grégoire,48.15366000,-1.69212400,,,0,,1,,
4-1209,1209,Pavie,Rennes,48.10499800,-1.64453400,,,0,,1,,
4-1247,1247,Pavie,Rennes,48.10486800,-1.64365600,,,0,,1,,
4-3805,3805,Perelle,Bourgbarré,47.99457600,-1.63150200,,,0,,2,,
4-3806,3806,Perelle,Bourgbarré,47.99439900,-1.63136500,,,0,,2,,
4-2713,2713,Petit Beaulieu,Noyal-Châtillon-sur-Seiche,48.06850500,-1.66574400,,,0,,1,,
4-2716,2716,Petit Beaulieu,Noyal-Châtillon-sur-Seiche,48.06854500,-1.66594100,,,0,,1,,
4-1498,1498,Petit Champeaux,Rennes,48.11662200,-1.72394500,,,0,,1,,
4-1504,1504,Petit Champeaux,Rennes,48.11635300,-1.72315800,,,0,,1,,
4-2422,2422,Petite Hublais,Betton,48.18217100,-1.61613900,,,0,,1,,
4-2429,2429,Petite Hublais,Betton,48.18203600,-1.61616400,,,0,,1,,
4-2162,2162,Petite Monniais,Cesson-Sévigné,48.10382800,-1.60405600,,,0,,2,,
4-2163,2163,Petite Monniais,Cesson-Sévigné,48.10370800,-1.60418000,,,0,,2,,
4-3203,3203,Petite Rochelle,Orgères,47.97628300,-1.65744500,,,0,,2,,
4-3205,3205,Petite Rochelle,Orgères,47.97608100,-1.65717500,,,0,,2,,
4-2710,2710,Petite Saudrais,Noyal-Châtillon-sur-Seiche,48.04716000,-1.66123000,,,0,,1,,
4-2719,2719,Petite Saudrais,Noyal-Châtillon-sur-Seiche,48.04701300,-1.66097200,,,0,,1,,
4-2006,2006,Petits Champs,Cesson-Sévigné,48.12525500,-1.59659200,,,0,,1,,
4-2030,2030,Petits Champs,Cesson-Sévigné,48.12479500,-1.59676700,,,0,,1,,
4-2058,2058,Peupliers,Cesson-Sévigné,48.11267200,-1.60770700,,,0,,1,,
4-2064,2064,Peupliers,Cesson-Sévigné,48.11254500,-1.60724100,,,0,,1,,
4-4253,4253,Piardière,La Chapelle-Thouarault,48.12193900,-1.84615800,,,0,,1,,
4-4256,4256,Piardière,La Chapelle-Thouarault,48.12203700,-1.84617500,,,0,,2,,
4-3102,3102,Pie Neuve,Pacé,48.15080300,-1.79226200,,,0,,1,,
4-3122,3122,Pie Neuve,Pacé,48.15110200,-1.79217000,,,0,,1,,
4-3735,3735,Pierre Blanche,Saint-Gilles,48.13798400,-1.86943200,,,0,,2,,
4-3736,3736,Pierre Blanche,Saint-Gilles,48.13854500,-1.87107800,,,0,,2,,
4-1044,1044,Pierre Legrand,Rennes,48.12217900,-1.68592400,,,0,,1,,
4-1097,1097,Pierre Legrand,Rennes,48.12204800,-1.68586300,,,0,,1,,
4-3502,3502,Pierre Texier,Montgermont,48.15565500,-1.72061400,,,0,,1,,
4-3513,3513,Pierre Texier,Montgermont,48.15572300,-1.72074800,,,0,,1,,
4-2159,2159,Pierrins,Cesson-Sévigné,48.13018300,-1.61456800,,,0,,1,,
4-2160,2160,Pierrins,Cesson-Sévigné,48.13073100,-1.61468500,,,0,,1,,
4-1453,1453,Pigeon Blanc,Saint-Jacques-de-la-Lande,48.08976800,-1.69298500,,,0,,1,,
4-2228,2228,Pigeon Blanc,Saint-Jacques-de-la-Lande,48.08979700,-1.69314600,,,0,,1,,
4-1274,1274,Pilate,Rennes,48.09503800,-1.68997900,,,0,,1,,
4-2219,2219,Pilate,Saint-Jacques-de-la-Lande,48.09408000,-1.69064200,,,0,,1,,
4-1522,1522,Piletière,Rennes,48.11388400,-1.64271900,,,0,,1,,
4-1528,1528,Piletière,Rennes,48.11399200,-1.64442000,,,0,,1,,
4-3105,3105,Pinault,Pacé,48.14765000,-1.78091600,,,0,,1,,
4-3119,3119,Pinault,Pacé,48.14751500,-1.78110300,,,0,,1,,
4-1060,1060,Piré,Rennes,48.09945200,-1.65752200,,,0,,1,,
4-1082,1082,Piré,Rennes,48.09987100,-1.65777500,,,0,,1,,
4-1051,1051,Place de Bretagne,Rennes,48.10988800,-1.68328000,,,0,,1,,
4-1091,1091,Place de Bretagne,Rennes,48.10973400,-1.68385000,,,0,,1,,
4-4103,4103,Place de Kildare,Corps-Nuds,47.97779400,-1.58503300,,,0,,1,,
4-4110,4110,Place de Kildare,Corps-Nuds,47.97767600,-1.58447700,,,0,,1,,
4-4264,4264,Place de la Mairie,La Chapelle-Thouarault,48.12306900,-1.86589900,,,0,,1,,
4-4269,4269,Place de la Mairie,La Chapelle-Thouarault,48.12309900,-1.86605300,,,0,,1,,
4-1552,1552,Place Pasteur,Rennes,48.11062400,-1.67350600,,,0,,1,,
4-1644,1644,Place Pasteur,Rennes,48.11071400,-1.67365800,,,0,,1,,
4-1706,1706,Place Pasteur,Rennes,48.11112500,-1.67454700,,,0,,1,,
4-1707,1707,Place Pasteur,Rennes,48.11074600,-1.67449400,,,0,,1,,
4-3605,3605,Placis de la Touche,Parthenay-de-Bretagne,48.18998200,-1.82084500,,,0,,2,,
4-3612,3612,Placis de la Touche,Parthenay-de-Bretagne,48.18994900,-1.82017600,,,0,,2,,
4-3308,3308,Placis Vert,Thorigné-Fouillard,48.17433200,-1.60213800,,,0,,1,,
4-1161,1161,Plaine de Baud,Rennes,48.11223200,-1.64422700,,,0,,1,,
4-1174,1174,Plaine de Baud,Rennes,48.11243700,-1.64292000,,,0,,1,,
4-3213,3213,Plardière,Orgères,48.00950700,-1.66592000,,,0,,1,,
4-3216,3216,Plardière,Orgères,48.00953200,-1.66619500,,,0,,1,,
4-2543,2543,Platanes,Le Rheu,48.10308200,-1.79837400,,,0,,1,,
4-2546,2546,Platanes,Le Rheu,48.10296300,-1.79844000,,,0,,1,,
4-2510,2510,Plessix Saucourt,Le Rheu,48.10389000,-1.75034000,,,0,,2,,
4-2511,2511,Plessix Saucourt,Le Rheu,48.10355900,-1.75128700,,,0,,2,,
4-4700,4700,Point du Jour,Laillé,47.97845000,-1.71347000,,,0,,1,,
4-4701,4701,Point du Jour,Laillé,47.97858200,-1.71305700,,,0,,1,,
4-1342,1342,Pologne,Rennes,48.09117500,-1.65175600,,,0,,1,,
4-1358,1358,Pologne,Rennes,48.09141900,-1.65191200,,,0,,1,,
4-4603,4603,Pommiers,Chevaigné,48.21093200,-1.62604100,,,0,,1,,
4-4604,4604,Pommiers,Chevaigné,48.20994400,-1.62584100,,,0,,1,,
4-2727,2727,Pont,Noyal-Châtillon-sur-Seiche,48.03844600,-1.66652500,,,0,,1,,
4-2732,2732,Pont,Noyal-Châtillon-sur-Seiche,48.03862800,-1.66691000,,,0,,1,,
4-3136,3136,Pont Amelin,Pacé,48.15469000,-1.78441400,,,0,,1,,
4-3141,3141,Pont Amelin,Pacé,48.15482100,-1.78438600,,,0,,1,,
4-3707,3707,Pont aux Moines,Saint-Gilles,48.15068300,-1.82527900,,,0,,1,,
4-3712,3712,Pont aux Moines,Saint-Gilles,48.15071400,-1.82479100,,,0,,2,,
4-2456,2456,Pont Brand,Betton,48.17878400,-1.66094500,,,0,,1,,
4-2457,2457,Pont Brand,Betton,48.17899000,-1.66055700,,,0,,1,,
4-2509,2509,Pont d'Avoine,Le Rheu,48.09613900,-1.76457300,,,0,,1,,
4-2512,2512,Pont d'Avoine,Le Rheu,48.09613900,-1.76511100,,,0,,1,,
4-4006,4006,Pont d'Ohin,Acigné,48.13727300,-1.54981400,,,0,,1,,
4-4009,4009,Pont d'Ohin,Acigné,48.13681600,-1.54844800,,,0,,1,,
4-1540,1540,Pont de Bretagne,Rennes,48.10999900,-1.68515800,,,0,,1,,
4-1542,1542,Pont de Bretagne,Rennes,48.10992000,-1.68535000,,,0,,1,,
4-1164,1164,Pont de Châteaudun,Rennes,48.11014500,-1.66392100,,,0,,1,,
4-1171,1171,Pont de Châteaudun,Rennes,48.11001600,-1.66362300,,,0,,1,,
4-4374,4374,Pont de l'Ise,Saint-Erblon,48.02028600,-1.64686900,,,0,,2,,
4-4375,4375,Pont de l'Ise,Saint-Erblon,48.02020300,-1.64716200,,,0,,2,,
4-1264,1264,Pont de Nantes,Rennes,48.10206000,-1.68441700,,,0,,1,,
4-1277,1277,Pont de Nantes,Rennes,48.10212700,-1.68409200,,,0,,1,,
4-1173,1173,Pont de Strasbourg,Rennes,48.11005500,-1.65616500,,,0,,1,,
4-1605,1605,Pont de Strasbourg,Rennes,48.11015700,-1.65650900,,,0,,1,,
4-3828,3828,Pont du Gué,Bourgbarré,47.99744600,-1.61309100,,,0,,2,,
4-3830,3830,Pont du Gué,Bourgbarré,47.99747500,-1.61293400,,,0,,2,,
4-4260,4260,Pont Harel,La Chapelle-Thouarault,48.13138900,-1.84505500,,,0,,2,,
4-4263,4263,Pont Harel,La Chapelle-Thouarault,48.13149900,-1.84475300,,,0,,2,,
4-3905,3905,Pont-Péan Mairie,Pont-Péan,48.01077200,-1.70672300,,,0,,1,,
4-3912,3912,Pont-Péan Mairie,Pont-Péan,48.01059600,-1.70671700,,,0,,1,,
4-2327,2327,Pont-Réan,Bruz,48.00542400,-1.77486600,,,0,,1,,
4-2347,2347,Pont-Réan,Bruz,48.00421300,-1.77539400,,,0,,1,,
4-5003,5003,Pontchaillou,Rennes,48.12153500,-1.69335000,,,0,4-15003,1,,
4-5018,5018,Pontchaillou,Rennes,48.12157800,-1.69346100,,,0,4-15003,1,,
4-5031,5031,Pontchaillou,Rennes,48.12135400,-1.69307600,,,0,,2,,
4-5032,5032,Pontchaillou,Rennes,48.12146000,-1.69358400,,,0,,2,,
4-3309,3309,Portail,Thorigné-Fouillard,48.15627100,-1.59237600,,,0,,2,,
4-3310,3310,Portail,Thorigné-Fouillard,48.15644800,-1.59184200,,,0,,2,,
4-1390,1390,Porte de Cleunay,Rennes,48.10417500,-1.71339400,,,0,,1,,
4-2314,2314,Porte de Ker Lann,Bruz,48.05439700,-1.74028500,,,0,,1,,
4-2707,2707,Potiers,Noyal-Châtillon-sur-Seiche,48.04079800,-1.67190000,,,0,,1,,
4-2722,2722,Potiers,Noyal-Châtillon-sur-Seiche,48.04078100,-1.67216100,,,0,,1,,
4-2216,2216,Pressoirs,Saint-Jacques-de-la-Lande,48.08731000,-1.69473000,,,0,,1,,
4-2257,2257,Pressoirs,Saint-Jacques-de-la-Lande,48.08704900,-1.69460500,,,0,,1,,
4-2119,2119,Prieuré Forge,Cesson-Sévigné,48.10822900,-1.58092700,,,0,,2,,
4-2120,2120,Prieuré Forge,Cesson-Sévigné,48.10813300,-1.58086500,,,0,,2,,
4-1523,1523,Primauguet,Rennes,48.11427700,-1.64913100,,,0,,1,,
4-1527,1527,Primauguet,Rennes,48.11456900,-1.64995900,,,0,,1,,
4-4154,4154,Provence,Brécé,48.10751600,-1.48293500,,,0,,1,,
4-4159,4159,Provence,Brécé,48.10746300,-1.48257100,,,0,,2,,
4-1248,1248,Pré Garel,Rennes,48.10389900,-1.63580500,,,0,,1,,
4-1629,1629,Pré Garel,Rennes,48.10399600,-1.63524800,,,0,,1,,
4-3154,3154,Pré Hervy,Pacé,48.13556900,-1.78908300,,,0,,2,,
4-1301,1301,Préfecture,Rennes,48.12816500,-1.69398000,,,0,,1,,
4-1303,1303,Préfecture,Rennes,48.12835300,-1.69411400,,,0,,1,,
4-1493,1493,Préfecture,Rennes,48.12719300,-1.69338200,,,0,,1,,
4-1495,1495,Préfecture,Rennes,48.12672400,-1.69307100,,,0,,1,,
4-4510,4510,Prés Verts,Gévezé,48.22361500,-1.79363000,,,0,,1,,
4-4511,4511,Prés Verts,Gévezé,48.22397800,-1.79377100,,,0,,1,,
4-1744,1744,Prévalaye,Rennes,48.09817700,-1.72683400,,,0,,2,,
4-1745,1745,Prévalaye,Rennes,48.09823700,-1.72646100,,,0,,2,,
4-4156,4156,Pâtis,Brécé,48.10938200,-1.50230500,,,0,,1,,
4-4157,4157,Pâtis,Brécé,48.10926500,-1.50319800,,,0,,1,,
4-3317,3317,Pâtis du Moulinet,Thorigné-Fouillard,48.14109400,-1.57365200,,,0,,2,,
4-3318,3318,Pâtis du Moulinet,Thorigné-Fouillard,48.14091100,-1.57350200,,,0,,2,,
4-3319,3319,Pâtis du Moulinet,Thorigné-Fouillard,48.14166500,-1.57735700,,,0,,2,,
4-3320,3320,Pâtis du Moulinet,Thorigné-Fouillard,48.14185700,-1.57739700,,,0,,2,,
4-3125,3125,Pâtis Roussel,Pacé,48.16049000,-1.76801100,,,0,,1,,
4-1481,1481,Pâtis Tatelin,Rennes,48.12978900,-1.64225200,,,0,,1,,
4-1483,1483,Pâtis Tatelin,Rennes,48.12955000,-1.64367000,,,0,,1,,
4-4066,4066,Quatre Vents,La Chapelle-des-Fougeretz,48.16859400,-1.74298300,,,0,,2,,
4-4067,4067,Quatre Vents,La Chapelle-des-Fougeretz,48.16897600,-1.74251000,,,0,,2,,
4-2304,2304,Rabine,Bruz,48.02575000,-1.76077400,,,0,,1,,
4-2323,2323,Rabine,Bruz,48.02563100,-1.76081000,,,0,,1,,
4-2330,2330,Rabine,Bruz,48.02396900,-1.76168100,,,0,,1,,
4-2345,2345,Rabine,Bruz,48.02339700,-1.76223900,,,0,,1,,
4-2226,2226,Rablais Allende,Saint-Jacques-de-la-Lande,48.08664500,-1.70144600,,,0,,1,,
4-2230,2230,Rablais Allende,Saint-Jacques-de-la-Lande,48.08645600,-1.70183300,,,0,,2,,
4-1316,1316,Raison,Rennes,48.10117100,-1.65293800,,,0,,1,,
4-1327,1327,Raison,Rennes,48.10140200,-1.65357000,,,0,,1,,
4-1263,1263,Rectorat,Rennes,48.11962900,-1.67431600,,,0,,1,,
4-1279,1279,Rectorat,Rennes,48.11945100,-1.67437100,,,0,,1,,
4-1401,1401,Redon,Rennes,48.10557400,-1.68772800,,,0,,1,,
4-1611,1611,Redon,Rennes,48.10546200,-1.68842200,,,0,,1,,
4-1720,1720,Redon,Rennes,48.10596800,-1.68858500,,,0,,1,,
4-3908,3908,Renaissance,Pont-Péan,48.01992500,-1.70693500,,,0,,1,,
4-3909,3909,Renaissance,Pont-Péan,48.01986000,-1.70712300,,,0,,1,,
4-3107,3107,Renan,Pacé,48.15118500,-1.77754000,,,0,,1,,
4-3117,3117,Renan,Pacé,48.15127500,-1.77765600,,,0,,1,,
4-2454,2454,Renaudais,Betton,48.18321800,-1.65476500,,,0,,1,,
4-2455,2455,Renaudais,Betton,48.18324900,-1.65459400,,,0,,1,,
4-2250,2250,Reuzerais,Saint-Jacques-de-la-Lande,48.08674100,-1.72403400,,,0,,2,,
4-2253,2253,Reuzerais,Saint-Jacques-de-la-Lande,48.08664900,-1.72308900,,,0,,2,,
4-4666,4666,Richeudais,Cintré,48.09669300,-1.88672700,,,0,,2,,
4-2804,2804,Ricoquais,Saint-Grégoire,48.15910500,-1.67666600,,,0,,1,,
4-2846,2846,Ricoquais,Saint-Grégoire,48.15900100,-1.67632600,,,0,,1,,
4-2089,2089,Rigourdière,Cesson-Sévigné,48.11357200,-1.59052000,,,0,,1,,
4-2103,2103,Rigourdière,Cesson-Sévigné,48.11331800,-1.59004000,,,0,,1,,
4-2161,2161,Rigourdière,Cesson-Sévigné,48.11440100,-1.59290400,,,0,,1,,
4-3906,3906,Rivaudière,Pont-Péan,48.01367500,-1.70755300,,,0,,1,,
4-3911,3911,Rivaudière,Pont-Péan,48.01361600,-1.70774200,,,0,,1,,
4-3137,3137,Rive Ouest,Pacé,48.14020600,-1.76355400,,,0,,1,,
4-3139,3139,Rive Ouest,Pacé,48.14015300,-1.76331800,,,0,,1,,
4-1222,1222,Roazhon Park,Rennes,48.10810700,-1.71406500,,,0,,1,,
4-1234,1234,Roazhon Park,Rennes,48.10768900,-1.71479600,,,0,,1,,
4-1163,1163,Robidou,Rennes,48.11016400,-1.66047900,,,0,,1,,
4-1172,1172,Robidou,Rennes,48.11003000,-1.65922700,,,0,,1,,
4-1667,1667,Robiquette,Rennes,48.13633300,-1.69693100,,,0,,1,,
4-2860,2860,Robiquette,Saint-Grégoire,48.13691600,-1.69733100,,,0,,1,,
4-3018,3018,Rocade Sud,Chantepie,48.08548100,-1.62722900,,,0,,1,,
4-3021,3021,Rocade Sud,Chantepie,48.08460000,-1.62750500,,,0,,1,,
4-2371,2371,Roche Marguerite,Bruz,47.99666600,-1.73976100,,,0,,2,,
4-4252,4252,Rochers,La Chapelle-Thouarault,48.12301100,-1.86072600,,,0,,1,,
4-4257,4257,Rochers,La Chapelle-Thouarault,48.12312200,-1.86083500,,,0,,1,,
4-1259,1259,Rochester,Rennes,48.12945200,-1.66359200,,,0,,1,,
4-1283,1283,Rochester,Rennes,48.12883100,-1.66376300,,,0,,1,,
4-6000,6000,Romillé Collège,Romillé,48.21868200,-1.89339400,,,0,,1,,
4-6021,6021,Romillé Collège,Romillé,48.21852800,-1.89574100,,,0,,2,,
4-6003,6003,Romillé Mairie,Romillé,48.21481800,-1.89242200,,,0,,1,,
4-6004,6004,Romillé Mairie,Romillé,48.21566400,-1.89191500,,,0,,1,,
4-6011,6011,Romillé Pigeon Blanc,Romillé,48.20782600,-1.83579700,,,0,,2,,
4-6012,6012,Romillé Pigeon Blanc,Romillé,48.20778700,-1.83572000,,,0,,2,,
4-1069,1069,Ronceray,Rennes,48.09275600,-1.63962000,,,0,,1,,
4-1073,1073,Ronceray,Rennes,48.09252800,-1.63965800,,,0,,1,,
4-2060,2060,Rond Point de Bray,Cesson-Sévigné,48.10777300,-1.61481900,,,0,,1,,
4-2062,2062,Rond Point de Bray,Cesson-Sévigné,48.10777100,-1.61406500,,,0,,1,,
4-3028,3028,Rosa Parks,Chantepie,48.08546400,-1.60403100,,,0,,1,,
4-3043,3043,Rosa Parks,Chantepie,48.08567500,-1.60369300,,,0,,0,,
4-4904,4904,Rouaudière,Langan,48.23421000,-1.84390800,,,0,,2,,
4-4905,4905,Rouaudière,Langan,48.23430200,-1.84394700,,,0,,2,,
4-4752,4752,Rouesnais Nord,Laillé,47.96862400,-1.74442400,,,0,,2,,
4-4750,4750,Rouesnais Sud,Laillé,47.96296700,-1.74287300,,,0,,2,,
4-4324,4324,Rue de Montfort,L'Hermitage,48.12785500,-1.82093400,,,0,,2,,
4-4325,4325,Rue de Montfort,L'Hermitage,48.12795400,-1.82084000,,,0,,2,,
4-4318,4318,Rue de Pacé,L'Hermitage,48.12613300,-1.80652700,,,0,,0,,
4-4330,4330,Rue de Pacé,L'Hermitage,48.12602900,-1.80642500,,,0,,0,,
4-1387,1387,Récipon,Rennes,48.09804400,-1.70818100,,,0,,1,,
4-1393,1393,Récipon,Rennes,48.09781400,-1.70764100,,,0,,1,,
4-1052,1052,République,Rennes,48.10993400,-1.67886900,,,0,,1,,
4-1090,1090,République,Rennes,48.10952600,-1.67794700,,,0,,1,,
4-1120,1120,République,Rennes,48.10997000,-1.67795000,,,0,,1,,
4-1167,1167,République,Rennes,48.10940500,-1.67873400,,,0,,1,,
4-1168,1168,République,Rennes,48.10976100,-1.67880700,,,0,,1,,
4-1214,1214,République,Rennes,48.10993200,-1.67964400,,,0,,1,,
4-1242,1242,République,Rennes,48.10975800,-1.67953200,,,0,,1,,
4-1315,1315,République,Rennes,48.10971600,-1.67805500,,,0,,1,,
4-1501,1501,République,Rennes,48.10940300,-1.67976800,,,0,,1,,
4-1556,1556,République,Rennes,48.10939400,-1.67765300,,,0,,1,,
4-1563,1563,République,Rennes,48.10971700,-1.67815800,,,0,,1,,
4-1615,1615,République,Rennes,48.10980300,-1.67828300,,,0,,1,,
4-1732,1732,République,Rennes,48.10951500,-1.67804200,,,0,,1,,
4-5006,5006,République,Rennes,48.10966700,-1.67922400,,,0,4-15006,1,,
4-5021,5021,République,Rennes,48.10971200,-1.67913800,,,0,4-15006,1,,
4-3716,3716,Résidence Janais,Saint-Gilles,48.15068300,-1.83039400,,,0,,2,,
4-3729,3729,Résidence Janais,Saint-Gilles,48.15100400,-1.83017800,,,0,,2,,
4-1125,1125,Sacrés Coeurs,Rennes,48.09692600,-1.67916600,,,0,,1,,
4-1139,1139,Sacrés Coeurs,Rennes,48.09691400,-1.67848400,,,0,,1,,
4-4551,4551,Saint-Armel Eglise,Saint-Armel,48.01346800,-1.59098800,,,0,,1,,
4-4552,4552,Saint-Armel Gare,Saint-Armel,48.01390500,-1.59403500,,,0,,1,,
4-4555,4555,Saint-Armel Gare,Saint-Armel,48.01405600,-1.59439400,,,0,,1,,
4-1612,1612,Saint-Conwoïon,Rennes,48.10353900,-1.68842900,,,0,,1,,
4-1613,1613,Saint-Conwoïon,Rennes,48.10301200,-1.68880800,,,0,,1,,
4-1616,1616,Saint-Conwoïon,Rennes,48.10330700,-1.68920600,,,0,,1,,
4-1378,1378,Saint-Exupéry,Rennes,48.12477000,-1.66161500,,,0,,1,,
4-1403,1403,Saint-Exupéry,Rennes,48.12521100,-1.66096000,,,0,,1,,
4-5058,5058,Saint-Germain,Rennes,48.11051900,-1.67612200,,,0,4-15058,1,,
4-5071,5071,Saint-Germain,Rennes,48.11071000,-1.67642900,,,0,4-15058,1,,
4-3705,3705,Saint-Gilles Centre,Saint-Gilles,48.15298000,-1.82980600,,,0,,2,,
4-3714,3714,Saint-Gilles Centre,Saint-Gilles,48.15252200,-1.82977300,,,0,,1,,
4-3718,3718,Saint-Hubert,Saint-Gilles,48.14198500,-1.82876100,,,0,,2,,
4-3725,3725,Saint-Hubert,Saint-Gilles,48.14189200,-1.82843500,,,0,,2,,
4-2278,2278,Saint-Jacques - Gaîté,Saint-Jacques-de-la-Lande,48.09191800,-1.70392200,,,0,,1,,
4-2279,2279,Saint-Jacques - Gaîté,Saint-Jacques-de-la-Lande,48.09181800,-1.70365800,,,0,,1,,
4-2280,2280,Saint-Jacques - Gaîté,Saint-Jacques-de-la-Lande,48.09223200,-1.70262200,,,0,,1,,
4-2282,2282,Saint-Jacques - Gaîté,Saint-Jacques-de-la-Lande,48.09206700,-1.70237900,,,0,,1,,
4-2284,2284,Saint-Jacques - Gaîté,Saint-Jacques-de-la-Lande,48.09172000,-1.70297500,,,0,,1,,
4-5064,5064,Saint-Jacques - Gaîté,Saint-Jacques-de-la-Lande,48.09183900,-1.70387500,,,0,4-15064,1,,
4-5065,5065,Saint-Jacques - Gaîté,Saint-Jacques-de-la-Lande,48.09225400,-1.70335000,,,0,4-15064,1,,
4-1103,1103,Saint-Laurent,Rennes,48.13880200,-1.65907200,,,0,,1,,
4-1485,1485,Saint-Laurent,Rennes,48.13795700,-1.65876900,,,0,,1,,
4-1491,1491,Saint-Laurent,Rennes,48.13892000,-1.65827300,,,0,,1,,
4-1043,1043,Saint-Martin,Rennes,48.12361400,-1.68423800,,,0,,1,,
4-1099,1099,Saint-Martin,Rennes,48.12358700,-1.68360600,,,0,,1,,
4-4653,4653,Saint-Melaine,Cintré,48.10333600,-1.86954500,,,0,,1,,
4-4654,4654,Saint-Melaine,Cintré,48.10346900,-1.86939300,,,0,,1,,
4-4655,4655,Saint-Roch,Cintré,48.10715900,-1.87318200,,,0,,2,,
4-1208,1208,Saint-Saëns,Rennes,48.10416500,-1.63778700,,,0,,1,,
4-1116,1116,Saint-Vincent,Rennes,48.11274600,-1.66445200,,,0,,1,,
4-1147,1147,Saint-Vincent,Rennes,48.11266600,-1.66434600,,,0,,1,,
4-1273,1273,Saint-Yves,Rennes,48.09273500,-1.69120000,,,0,,1,,
4-2218,2218,Saint-Yves,Saint-Jacques-de-la-Lande,48.09240500,-1.69168000,,,0,,1,,
4-5005,5005,Sainte-Anne,Rennes,48.11445500,-1.68048400,,,0,4-15005,1,,
4-5020,5020,Sainte-Anne,Rennes,48.11450100,-1.68039800,,,0,4-15005,1,,
4-5057,5057,Sainte-Anne,Rennes,48.11462100,-1.67992700,,,0,4-15005,1,,
4-5072,5072,Sainte-Anne,Rennes,48.11488400,-1.67997100,,,0,4-15005,1,,
4-1337,1337,Sainte-Thérèse,Rennes,48.09753200,-1.66289000,,,0,,1,,
4-1363,1363,Sainte-Thérèse,Rennes,48.09742700,-1.66255500,,,0,,1,,
4-3838,3838,Salle de Sports,Bourgbarré,47.99119300,-1.61654800,,,0,,1,,
4-3839,3839,Salle de Sports,Bourgbarré,47.99105800,-1.61690400,,,0,,1,,
4-2158,2158,Salmondière,Cesson-Sévigné,48.10058900,-1.56133700,,,0,,2,,
4-4153,4153,Saules,Brécé,48.10712700,-1.47913600,,,0,,1,,
4-4160,4160,Saules,Brécé,48.10729100,-1.47838100,,,0,,1,,
4-1321,1321,Sauvaie,Rennes,48.09377700,-1.63377800,,,0,,1,,
4-1322,1322,Sauvaie,Rennes,48.09429700,-1.63458900,,,0,,1,,
4-1760,1760,Semprùn,Rennes,48.10957700,-1.64588800,,,0,,0,,
4-1763,1763,Semprùn,Rennes,48.10976700,-1.64578800,,,0,,0,,
4-3811,3811,Sept Fours,Bourgbarré,47.95933200,-1.63726700,,,0,,2,,
4-1211,1211,Serpette,Rennes,48.10311600,-1.65249100,,,0,,1,,
4-1245,1245,Serpette,Rennes,48.10321300,-1.65253600,,,0,,1,,
4-1226,1226,Servigné,Rennes,48.10125800,-1.73176900,,,0,,1,,
4-1229,1229,Servigné,Rennes,48.10115400,-1.73161700,,,0,,1,,
4-3500,3500,Silandière,Montgermont,48.16396900,-1.73175200,,,0,,2,,
4-3515,3515,Silandière,Montgermont,48.16275900,-1.73057600,,,0,,2,,
4-2606,2606,Solidor,Vern-sur-Seiche,48.05062900,-1.61498200,,,0,,1,,
4-2637,2637,Solidor,Vern-sur-Seiche,48.04966300,-1.61536000,,,0,,1,,
4-3164,3164,Sorinais,Pacé,48.13557800,-1.77212100,,,0,,2,,
4-4376,4376,Souillard,Saint-Erblon,48.03227600,-1.62341500,,,0,,0,,
4-4377,4377,Souillard,Saint-Erblon,48.03225500,-1.62333200,,,0,,0,,
4-2014,2014,Sports et Nature,Cesson-Sévigné,48.11472100,-1.60970800,,,0,,1,,
4-2022,2022,Sports et Nature,Cesson-Sévigné,48.11464200,-1.60954500,,,0,,1,,
4-2144,2144,Sports et Nature,Cesson-Sévigné,48.11433400,-1.60853400,,,0,,1,,
4-2145,2145,Sports et Nature,Cesson-Sévigné,48.11424500,-1.60861500,,,0,,1,,
4-2240,2240,St-Jacques Mairie,Saint-Jacques-de-la-Lande,48.08059400,-1.71228700,,,0,,2,,
4-2241,2241,St-Jacques Mairie,Saint-Jacques-de-la-Lande,48.08053000,-1.71259000,,,0,,2,,
4-2146,2146,Stade Belliard,Cesson-Sévigné,48.11884100,-1.59949400,,,0,,1,,
4-2147,2147,Stade Belliard,Cesson-Sévigné,48.11907600,-1.59829700,,,0,,1,,
4-3209,3209,Surcouf,Orgères,47.99256300,-1.66878700,,,0,,1,,
4-3220,3220,Surcouf,Orgères,47.99221600,-1.66790000,,,0,,1,,
4-1129,1129,Suède,Rennes,48.08727100,-1.68247900,,,0,,1,,
4-1135,1135,Suède,Rennes,48.08808500,-1.68215000,,,0,,1,,
4-4056,4056,Sénestrais,La Chapelle-des-Fougeretz,48.17016000,-1.73618800,,,0,,1,,
4-4057,4057,Sénestrais,La Chapelle-des-Fougeretz,48.17040100,-1.73620500,,,0,,1,,
4-4802,4802,Sévignière,Bécherel,48.29955400,-1.93959700,,,0,,2,,
4-4803,4803,Sévignière,Bécherel,48.29979600,-1.93919800,,,0,,2,,
4-1012,1012,Sévigné,Rennes,48.11605000,-1.67424500,,,0,,1,,
4-1704,1704,Sévigné,Rennes,48.11590500,-1.67413200,,,0,,1,,
4-2904,2904,Taillebois,Chartres-de-Bretagne,48.03701700,-1.71236500,,,0,,1,,
4-2909,2909,Taillebois,Chartres-de-Bretagne,48.03671800,-1.71253200,,,0,,1,,
4-2016,2016,Taillis,Cesson-Sévigné,48.11422400,-1.62195100,,,0,,1,,
4-2020,2020,Taillis,Cesson-Sévigné,48.11410500,-1.62183700,,,0,,1,,
4-3173,3173,Teillais,Pacé,48.14824800,-1.76382100,,,0,,1,,
4-3174,3174,Teillais,Pacé,48.14829700,-1.76420800,,,0,,1,,
4-3954,3954,Terrain des Sports,Saint-Sulpice-la-Forêt,48.21475000,-1.58650100,,,0,,1,,
4-3960,3960,Terrain des Sports,Saint-Sulpice-la-Forêt,48.21463700,-1.58689300,,,0,,1,,
4-3758,3758,Tertre,Vezin-le-Coquet,48.11845000,-1.74329900,,,0,,1,,
4-3761,3761,Tertre,Vezin-le-Coquet,48.11857200,-1.74333400,,,0,,1,,
4-1118,1118,Thabor,Rennes,48.11181600,-1.67124400,,,0,,1,,
4-1146,1146,Thabor,Rennes,48.11189700,-1.67108300,,,0,,2,,
4-1496,1496,The Land,Rennes,48.13218300,-1.70931200,,,0,,1,,
4-3302,3302,Thorigné Mairie,Thorigné-Fouillard,48.15303900,-1.57944500,,,0,,1,,
4-3315,3315,Thorigné Mairie,Thorigné-Fouillard,48.15360600,-1.57976800,,,0,,1,,
4-3519,3519,Thébaudière,Montgermont,48.14669800,-1.71956400,,,0,,2,,
4-2425,2425,Tihouït,Betton,48.16374200,-1.62516400,,,0,,1,,
4-2426,2426,Tihouït,Betton,48.16408700,-1.62486600,,,0,,1,,
4-4001,4001,Timonière,Acigné,48.13704300,-1.52633500,,,0,,1,,
4-1702,1702,TNB,Rennes,48.10849600,-1.67356000,,,0,,1,,
4-1703,1703,TNB,Rennes,48.10854500,-1.67380500,,,0,,1,,
4-1347,1347,Torigné,Rennes,48.08476900,-1.65792500,,,0,,1,,
4-1353,1353,Torigné,Rennes,48.08453500,-1.65796200,,,0,,1,,
4-3027,3027,Touche Annette,Chantepie,48.08580300,-1.60813600,,,0,,1,,
4-3029,3029,Touche Annette,Chantepie,48.08570600,-1.60747300,,,0,,1,,
4-3927,3927,Touche Audienne,Pont-Péan,48.00227400,-1.71181700,,,0,,2,,
4-3145,3145,Touche Champagne,Pacé,48.17995900,-1.80167500,,,0,,2,,
4-3146,3146,Touche Champagne,Pacé,48.18012000,-1.80181700,,,0,,2,,
4-2152,2152,Touche Lambert,Cesson-Sévigné,48.13524500,-1.62287000,,,0,,1,,
4-2153,2153,Touche Lambert,Cesson-Sévigné,48.13505300,-1.62280700,,,0,,1,,
4-3104,3104,Touche Milon,Pacé,48.14846300,-1.78479100,,,0,,1,,
4-3120,3120,Touche Milon,Pacé,48.14860000,-1.78500600,,,0,,1,,
4-2110,2110,Touche sur Roche,Cesson-Sévigné,48.09762800,-1.58675700,,,0,,2,,
4-2111,2111,Touche sur Roche,Cesson-Sévigné,48.09797100,-1.58688800,,,0,,2,,
4-2749,2749,Touche Tizon,Noyal-Châtillon-sur-Seiche,48.05586500,-1.70112400,,,0,,2,,
4-1160,1160,Tournebride,Rennes,48.11409900,-1.63756500,,,0,,1,,
4-1609,1609,Tournebride,Rennes,48.11419400,-1.63648200,,,0,,1,,
4-1610,1610,Tournebride,Rennes,48.11402500,-1.63608200,,,0,,1,,
4-1441,1441,Triangle,Rennes,48.08608000,-1.66085500,,,0,,1,,
4-1465,1465,Triangle,Rennes,48.08611700,-1.66111900,,,0,,1,,
4-5013,5013,Triangle,Rennes,48.08640500,-1.66052100,,,0,4-15013,1,,
4-5028,5028,Triangle,Rennes,48.08647700,-1.66065400,,,0,4-15013,1,,
4-1041,1041,Trois Croix,Rennes,48.12906100,-1.68369200,,,0,,1,,
4-1101,1101,Trois Croix,Rennes,48.12726600,-1.68326000,,,0,,1,,
4-1425,1425,Trois Croix,Rennes,48.12800000,-1.68244800,,,0,,1,,
4-3752,3752,Trois Marches,Vezin-le-Coquet,48.10470400,-1.73900900,,,0,,1,,
4-3753,3753,Trois Marches,Vezin-le-Coquet,48.10575000,-1.74001400,,,0,,1,,
4-3766,3766,Trois Marches,Vezin-le-Coquet,48.10499800,-1.74062400,,,0,,1,,
4-3955,3955,Tronchay,Saint-Sulpice-la-Forêt,48.21168800,-1.59080900,,,0,,1,,
4-3959,3959,Tronchay,Saint-Sulpice-la-Forêt,48.21177100,-1.59050900,,,0,,1,,
4-1377,1377,Trégain,Rennes,48.12682600,-1.65857000,,,0,,1,,
4-1404,1404,Trégain,Rennes,48.12671200,-1.65848700,,,0,,1,,
4-2404,2404,Trégor,Betton,48.18300700,-1.64607500,,,0,,2,,
4-2419,2419,Trégor,Betton,48.18319500,-1.64654600,,,0,,2,,
4-2448,2448,Trégor,Betton,48.18378400,-1.64629800,,,0,,1,,
4-2449,2449,Trégor,Betton,48.18359400,-1.64630600,,,0,,1,,
4-2544,2544,Trémelière,Le Rheu,48.10357800,-1.80298800,,,0,,1,,
4-2545,2545,Trémelière,Le Rheu,48.10340200,-1.80286400,,,0,,1,,
4-4162,4162,Turbanière,Brécé,48.10840900,-1.50780700,,,0,,1,,
4-4163,4163,Turbanière,Brécé,48.10823900,-1.50737700,,,0,,1,,
4-1006,1006,Turmel,Rennes,48.12229000,-1.65074200,,,0,,1,,
4-1034,1034,Turmel,Rennes,48.12218500,-1.65061900,,,0,,1,,
4-1683,1683,Turmel,Rennes,48.12178900,-1.65091900,,,0,,1,,
4-1684,1684,Turmel,Rennes,48.12166900,-1.65120900,,,0,,1,,
4-3204,3204,Télégraphe,Orgères,47.98333600,-1.66001500,,,0,,2,,
4-1296,1296,Université,Rennes,48.11931300,-1.70449900,,,0,,1,,
4-1308,1308,Université,Rennes,48.11892600,-1.70473600,,,0,,1,,
4-2808,2808,Uttenreuth,Saint-Grégoire,48.15684500,-1.68738900,,,0,,1,,
4-2836,2836,Uttenreuth,Saint-Grégoire,48.15700500,-1.68726600,,,0,,1,,
4-3019,3019,Val Blanc,Chantepie,48.08050800,-1.63084900,,,0,,2,,
4-3020,3020,Val Blanc,Chantepie,48.08065200,-1.63060100,,,0,,2,,
4-2609,2609,Val d'Orson,Vern-sur-Seiche,48.06413800,-1.62307400,,,0,,1,,
4-2614,2614,Val d'Orson,Vern-sur-Seiche,48.06396000,-1.62291700,,,0,,1,,
4-2262,2262,Vallon,Saint-Jacques-de-la-Lande,48.06872900,-1.69789600,,,0,,1,,
4-2702,2702,Vallon,Noyal-Châtillon-sur-Seiche,48.06843000,-1.69757400,,,0,,2,,
4-3755,3755,Vallée,Vezin-le-Coquet,48.12021100,-1.76541700,,,0,,1,,
4-3764,3764,Vallée,Vezin-le-Coquet,48.12040200,-1.76558500,,,0,,1,,
4-2627,2627,Vaugon,Vern-sur-Seiche,48.03148200,-1.59945400,,,0,,1,,
4-2628,2628,Vaugon,Vern-sur-Seiche,48.03125300,-1.59950500,,,0,,1,,
4-4323,4323,Verdais,L'Hermitage,48.13052600,-1.83374000,,,0,,2,,
4-4002,4002,Verdaudais,Acigné,48.13693100,-1.53309800,,,0,,1,,
4-4013,4013,Verdaudais,Acigné,48.13715900,-1.53287000,,,0,,1,,
4-2079,2079,Verger,Cesson-Sévigné,48.12886000,-1.60597100,,,0,,2,,
4-2084,2084,Verger,Cesson-Sévigné,48.12903000,-1.60474100,,,0,,2,,
4-2629,2629,Vern Eglise,Vern-sur-Seiche,48.04718700,-1.60251800,,,0,,1,,
4-2634,2634,Vern Eglise,Vern-sur-Seiche,48.04710200,-1.60270700,,,0,,1,,
4-2646,2646,Vern Gare,Vern-sur-Seiche,48.04697700,-1.59594600,,,0,,2,,
4-2647,2647,Vern Gare,Vern-sur-Seiche,48.04684600,-1.59586700,,,0,,2,,
4-2621,2621,Vern La Touche,Vern-sur-Seiche,48.04090500,-1.60236600,,,0,,2,,
4-2305,2305,Vert Buisson,Bruz,48.02934000,-1.75792800,,,0,,1,,
4-2322,2322,Vert Buisson,Bruz,48.02944400,-1.75804100,,,0,,1,,
4-1205,1205,Veyettes,Rennes,48.09714700,-1.62925200,,,0,,1,,
4-1251,1251,Veyettes,Rennes,48.09704200,-1.62912600,,,0,,1,,
4-3757,3757,Vezin Centre,Vezin-le-Coquet,48.11887000,-1.75683300,,,0,,1,,
4-3762,3762,Vezin Centre,Vezin-le-Coquet,48.11923000,-1.75549900,,,0,,1,,
4-3774,3774,Vezin Centre,Vezin-le-Coquet,48.11899400,-1.75684900,,,0,,2,,
4-2070,2070,Victoire,Cesson-Sévigné,48.14514800,-1.60866100,,,0,,1,,
4-2073,2073,Victoire,Cesson-Sévigné,48.14511800,-1.60840700,,,0,,1,,
4-2348,2348,Victor Hugo,Bruz,48.02347800,-1.74338300,,,0,,1,,
4-2353,2353,Victor Hugo,Bruz,48.02338600,-1.74308600,,,0,,1,,
4-4055,4055,Viennais,La Chapelle-des-Fougeretz,48.17411100,-1.73520400,,,0,,1,,
4-4058,4058,Viennais,La Chapelle-des-Fougeretz,48.17399100,-1.73517800,,,0,,1,,
4-2914,2914,Vieux Bourg,Chartres-de-Bretagne,48.03691800,-1.69700800,,,0,,1,,
4-2922,2922,Vieux Bourg,Chartres-de-Bretagne,48.03705700,-1.69720900,,,0,,1,,
4-4524,4524,Vieux Moulin,Gévezé,48.21997500,-1.78778500,,,0,,2,,
4-4525,4525,Vieux Moulin,Gévezé,48.21999800,-1.78751100,,,0,,2,,
4-3708,3708,Vigne,Saint-Gilles,48.15280100,-1.82067800,,,0,,1,,
4-3711,3711,Vigne,Saint-Gilles,48.15415200,-1.81998800,,,0,,2,,
4-2013,2013,Vilaine,Cesson-Sévigné,48.11641900,-1.60739700,,,0,,1,,
4-2023,2023,Vilaine,Cesson-Sévigné,48.11559300,-1.60696100,,,0,,1,,
4-4305,4305,Village,L'Hermitage,48.12460900,-1.81155700,,,0,,1,,
4-4308,4308,Village,L'Hermitage,48.12505800,-1.81301400,,,0,,1,,
4-2101,2101,Village Collectivités,Cesson-Sévigné,48.13175500,-1.59794600,,,0,,1,,
4-3316,3316,Village Collectivités,Thorigné-Fouillard,48.13216000,-1.59636700,,,0,,1,,
4-4267,4267,Ville aux Archers,La Chapelle-Thouarault,48.12259500,-1.86836600,,,0,,1,,
4-4270,4270,Ville aux Archers,La Chapelle-Thouarault,48.12265700,-1.86855400,,,0,,2,,
4-3878,3878,Ville Noublée,Mordelles,48.08622600,-1.85440200,,,0,,2,,
4-3879,3879,Ville Noublée,Mordelles,48.08648800,-1.85411800,,,0,,2,,
4-1317,1317,Villebois-Mareuil,Rennes,48.10010100,-1.64941500,,,0,,1,,
4-1326,1326,Villebois-Mareuil,Rennes,48.10120700,-1.64958700,,,0,,1,,
4-1437,1437,Villebois-Mareuil,Rennes,48.10080400,-1.64982400,,,0,,1,,
4-1470,1470,Villebois-Mareuil,Rennes,48.10074000,-1.65068000,,,0,,1,,
4-1413,1413,Villejean-Churchill,Rennes,48.11860700,-1.70795400,,,0,,1,,
4-1423,1423,Villejean-Churchill,Rennes,48.11850800,-1.70816000,,,0,,1,,
4-1297,1297,Villejean-Université,Rennes,48.12191800,-1.70370500,,,0,,1,,
4-1307,1307,Villejean-Université,Rennes,48.12175500,-1.70395400,,,0,,1,,
4-1494,1494,Villejean-Université,Rennes,48.12122400,-1.70294300,,,0,,1,,
4-1497,1497,Villejean-Université,Rennes,48.12097600,-1.70294700,,,0,,1,,
4-1519,1519,Villejean-Université,Rennes,48.12107000,-1.70294800,,,0,,1,,
4-1529,1529,Villejean-Université,Rennes,48.12116000,-1.70294300,,,0,,1,,
4-1553,1553,Villejean-Université,Rennes,48.12129700,-1.70233900,,,0,,1,,
4-1669,1669,Villejean-Université,Rennes,48.12134700,-1.70558700,,,0,,1,,
4-5002,5002,Villejean-Université,Rennes,48.12119700,-1.70388200,,,0,4-15002,1,,
4-5017,5017,Villejean-Université,Rennes,48.12128300,-1.70387900,,,0,4-15002,1,,
4-5038,5038,Villejean-Université,Rennes,48.12143400,-1.70308400,,,0,,1,,
4-1572,1572,Vincennes,Rennes,48.11801500,-1.67521900,,,0,,1,,
4-3244,3244,Violais,Orgères,47.97288300,-1.64860500,,,0,,2,,
4-3255,3255,Violais,Orgères,47.97282600,-1.64872700,,,0,,2,,
4-1112,1112,Vitré Danton,Rennes,48.11893000,-1.65106300,,,0,,1,,
4-1151,1151,Vitré Danton,Rennes,48.11873300,-1.65158900,,,0,,1,,
4-1201,1201,Vitré Foulon,Rennes,48.11910200,-1.64911100,,,0,,1,,
4-3858,3858,Vivier des Bois,Mordelles,48.08823000,-1.79867100,,,0,,2,,
4-3859,3859,Vivier des Bois,Mordelles,48.08810600,-1.79996600,,,0,,2,,
4-2806,2806,Vivier Louis,Saint-Grégoire,48.15902700,-1.68557800,,,0,,1,,
4-2824,2824,Vivier Louis,Saint-Grégoire,48.15887600,-1.68514500,,,0,,1,,
4-3507,3507,Vizeule,Montgermont,48.14897800,-1.70404700,,,0,,1,,
4-3508,3508,Vizeule,Montgermont,48.14895900,-1.70386900,,,0,,1,,
4-1261,1261,Volney,Rennes,48.12411200,-1.66813800,,,0,,1,,
4-1281,1281,Volney,Rennes,48.12438800,-1.66759500,,,0,,2,,
4-1656,1656,Volney,Rennes,48.12526100,-1.66779100,,,0,,1,,
4-1657,1657,Volney,Rennes,48.12531800,-1.66769500,,,0,,1,,
4-1382,1382,Voltaire,Rennes,48.10507400,-1.69881800,,,0,,1,,
4-1398,1398,Voltaire,Rennes,48.10522500,-1.69867200,,,0,,1,,
4-3324,3324,ZA Bellevue,Thorigné-Fouillard,48.15338200,-1.59023100,,,0,,1,,
4-3834,3834,ZA Bourgbarré,Saint-Armel,48.00689800,-1.59702400,,,0,,1,,
4-3835,3835,ZA Bourgbarré,Bourgbarré,48.00686500,-1.59714900,,,0,,1,,
4-3225,3225,ZA L'Hermitière,Orgères,47.96260800,-1.68489400,,,0,,2,,
4-3248,3248,ZA L'Hermitière,Orgères,47.96263800,-1.68500500,,,0,,2,,
4-4754,4754,ZA Le Rachat,Laillé,47.97359900,-1.71482900,,,0,,2,,
4-4755,4755,ZA Le Rachat,Laillé,47.97367900,-1.71479100,,,0,,2,,
4-1480,1480,ZA Saint-Sulpice,Rennes,48.13197800,-1.63492800,,,0,,1,,
4-1484,1484,ZA Saint-Sulpice,Rennes,48.13187500,-1.63589600,,,0,,1,,
4-1630,1630,ZA Saint-Sulpice,Rennes,48.13266200,-1.63618700,,,0,,1,,
4-1631,1631,ZA Saint-Sulpice,Rennes,48.13235300,-1.63615200,,,0,,1,,
4-3751,3751,ZI Ouest,Vezin-le-Coquet,48.10743100,-1.73928100,,,0,,1,,
